business_id|name|city|state|latitude|longitude|stars|review_count|price|genres|avg score
5UmKMjUEUNdYWqANhGckJw|Mr Hoagie|Dravosburg|PA|40.3543266|-79.9007057|4.5|4|1|Fast Food|4.67
mVHrayjG3uZ_RLHkLj-AMg|Emil's Lounge|rankin|PA|40.4134643|-79.8802474|5.0|20|1|Bars /// American (New) /// Nightlife /// Lounges|4.72
KayYbHCt-RkbGcPdGOThNg|Alexion's Bar & Grill|Carnegie|PA|40.415517|-80.067534|4.0|21|1|Bars /// American (Traditional) /// Nightlife|3.94
wJr6kSA5dchdgOdwH6dZ2w|Kings Family Restaurant|Carnegie|PA|40.3875124|-80.0932152|3.5|8|1|Burgers /// Breakfast & Brunch /// American (Traditional)|3.29
fNGIbpazjTRdXgwRY_NIXA|Rocky's Lounge|Carnegie|PA|40.3964688|-80.0849416|4.0|7|1|Bars /// American (Traditional) /// Nightlife /// Lounges|4.0
b9WZJp5L1RZr4F1nxclOoQ|Gab & Eat|Carnegie|PA|40.3980741|-80.0833859|4.5|58|1|Breakfast & Brunch /// Sandwiches|4.57
zaXDakTd3RXyOa7sMrUE1g|Barb's Country Junction Cafe|Carnegie|PA|40.404638|-80.089985|3.5|6|1|Cafes|4.0
WETE_LykpcnrC1sFcQ5EGg|Paddy's Pour House|Carnegie|PA|40.40867|-80.085279|3.0|7|2|Pubs /// Irish /// Nightlife /// Bars|3.0
rv7CY8G_XibTx82YhuqQRw|Long John Silver's|Carnegie|PA|40.3868915|-80.0937037|3.5|5|1||3.4
SQ0j7bgSTazkVQlF5AnqyQ|Don Don Chinese Restaurant|Carnegie|PA|40.4083473|-80.0849615|2.5|9|1|Chinese|2.5
wqu7ILomIOPSduRwoWp4AQ|Denny's|Pittsburgh|PA|40.39114|-80.073788|4.0|9|1|American (Traditional)|4.43
P1fJb2WQ1mXoiudj8UE44w|Papa J's|Carnegie|PA|40.4081422|-80.0851737|3.5|64|2|Italian|3.57
8QlnAcjGE6dgfKTVoxrPvQ|Boston Market|Pittsburgh|PA|40.495167|-79.958717|2.5|3|2|American (Traditional) /// Comfort Food /// Caterers /// Event Planning & Services|N/A
t_gan0EXAw8csKIeFyazJw|Homestead Capri Pizza|Homestead|PA|40.4067047|-79.9105266|3.5|3|1|Italian /// Pizza|3.33
6ilJq_05xRgek_8qUp36-g|Steak 'n Shake|Munhall|PA|40.413496|-79.9044562|2.0|48|1|Burgers /// Fast Food|1.93
1qCuOcks5HRv67OHovAVpg|Duke's Upper Deck Cafe|Homestead|PA|40.405311|-79.912595|3.5|26|2|Pubs /// Bars /// American (New) /// Nightlife|3.65
sbW8qHJgzEIH42B0S-3New|Dave & Buster's|Homestead|PA|40.4092932|-79.9141865|2.5|85|2|Arts & Entertainment /// American (Traditional) /// Bars /// Pubs /// Arcades /// Nightlife|2.78
W7ysp8GLCBrs0GXIVwAcBQ|Wendy's|Homestead|PA|40.4097098|-79.9017997|2.0|5|1|Burgers /// Fast Food|1.75
-taSf0shFSUKy9iCXnySsA|Italian Village Pizza|Homestead|PA|40.3925524|-79.9000102|2.5|4|N/A|Pizza|2.0
McikHxxEqZ2X0joaRNKlaw|Rock Bottom|Homestead|PA|40.4094353|-79.9152619|3.5|124|2|Food /// American (Traditional) /// Breweries|3.35
EoAY1JSVeJriBzId8lUQwQ|Bar Louie|West Homestead|PA|40.4070709|-79.917508|2.5|74|2|Bars /// American (New) /// Nightlife|2.7
TfvWSIAMFZ9zI3y2-K6wOA|The Dragon Chinese Cuisine|Munhall|PA|40.3868368|-79.9029475|3.5|5|1|Chinese|3.25
tU-YtoW339PXJmUGSix_AQ|TGI Friday's|Homestead|PA|40.410874319|-79.9155451419|2.5|19|2|Bars /// American (Traditional) /// Nightlife|2.53
6p9TlP2I8S4agxYMNFSDjg|Uno Pizzeria & Grill|Homestead|PA|40.410967|-79.9141364|3.0|41|2|American (Traditional) /// Pizza /// Gluten-Free|2.95
JDDeaNfb0JXD1NbznSIC9g|P.F. Chang's China Bistro|West Homestead|PA|40.4073551|-79.9158429|3.0|82|2|Gluten-Free /// Asian Fusion /// Chinese|3.07
FiXamVMgMf9U0VqFHDZSEA|Panera Bread|West Homestead|PA|40.407174|-79.916603|3.0|22|1|Soup /// Sandwiches /// Salad|3.15
uLnDFdn011hEroQQMLmxNQ|The Pizza Company|Munhall|PA|40.3857182|-79.9032997|3.5|8|1|Pizza|3.5
eznh0XjVtv924K-KYx_ilQ|Eat'n Park|Homestead|PA|40.4113236|-79.9132525|3.0|43|1|American (Traditional) /// Diners|3.0
usSROUMiAgPcxV3Ym0OxMQ|Mitchell's Fish Market|Pittsburgh/Waterfront|PA|40.4088783792|-79.9180894261|3.5|99|3|Seafood|3.51
CL3tZqbYT7B5zgewKCS6-Q|McDonald's|West Mifflin|PA|40.3849854|-79.8626605|1.0|3|N/A|Burgers /// Fast Food|1.0
u22QDAON1kk0wjoTliyftw|Latina Pizza|West Mifflin|PA|40.389192|-79.868305|4.0|3|1|Pizza|4.0
53Yk2EODWnV9qHQECzeHVQ|Bellisario Pizza Shop|West Mifflin|PA|40.3736775|-79.8737336|3.0|4|1|Pizza|3.0
iBZRphMDFcS2aMbawc1OvA|Hunan Wok Chinese Restaurant|West Mifflin|PA|40.3736775|-79.8737336|5.0|4|1|Chinese|4.75
GJAv1nAfnHuab8oRyr8mXg|Eat'n Park Restaurant|McKees Rocks|PA|40.4641404|-80.0579296|4.0|4|1|American (Traditional)|3.75
r8BwdblCW-ZUES37BL0khw|Broadway Brunch|McKees Rocks|PA|40.472505|-80.074153|4.5|17|1|Burgers /// Breakfast & Brunch /// Diners|4.71
mIiHJkpK8nZvW_45LlhrbA|Pasquarelli's Pizza House|Mc Kees Rocks|PA|40.4660133|-80.0653055|4.0|12|2|Pizza|4.0
OZfpG8tDCcIEq8pzgZdyKw|Applebee's|McKees Rocks|PA|40.46562|-80.0656106|3.5|6|2|Bars /// American (Traditional) /// Burgers /// Nightlife /// Sports Bars|3.75
8Nm_jcCYtMXYW0ODSHDiXA|Sapporo Japanese Steakhouse|Pittsburgh|PA|40.4400036|-80.0909106|4.5|7|3|Japanese|4.17
T49ZvBa6mD4xHSmjHe-ArA|R & B's Pizza Place|Bellvue|PA|40.4941577|-80.0532928|4.0|14|1|Pizza|3.93
eOv0Dbq2E8sd0CKMAqTImw|Luigi's Pizzeria|Bellevue|PA|40.495887|-80.056877|4.0|17|2|Pizza|4.0
_jsJFrAmFVPRio0eEVExbA|McDonald's|Pittsburgh|PA|40.492067|-80.06235|2.0|6|1|Burgers /// Fast Food|2.4
Lml0-yTNsMYsP9IrSMxw9A|China Sea Chinese Restaurant|Bellevue|PA|40.4972056|-80.0583585|3.0|9|1|Chinese|3.0
JX2gDf2uy2UGuKPpcKT-IA|Wendy's|Pittsburgh|PA|40.4940896|-80.0635357|1.5|4|1|Burgers /// Fast Food|1.5
QVZBd_eu0oJ4IN0md2XPTQ|Vivo|Bellevue|PA|40.4964326|-80.057809|5.0|4|4|Italian|5.0
udZJ8YgsHdqtFDQkyPTV1Q|Arby's|Pittsburgh|PA|40.4876741|-80.055667|3.0|4|1||2.75
ucKQlQvOeJxETLNkpKcaSw|Rusty Nail|Bellevue|PA|40.4966408|-80.057381|3.5|24|1|American (Traditional)|3.55
ZL6DNzyenFm9Kpz6uADlNg|Pino's Contemporary Italian Restaurant & Wine Bar|Pittsburgh|PA|40.450249|-79.9145|3.0|60|2|Tapas/Small PlatesItalian|3.14
OcTG-KzDleuRub-pb6JS3Q|Eddie's Pizza Haus|Pittsburgh|PA|40.4852544|-79.9259754|4.0|5|1|Pizza|4.0
Y2p07YEC8xOsYTHWf0UxiA|Tasty Chinese Restaurant|Pittsburgh|PA|40.458497|-79.9246661|2.5|21|1|Chinese|2.67
g58NW9q4F09wTMiI7EIjmg|Vento's Pizza|Pittsburgh|PA|40.4653904|-79.9229971|3.0|14|1|Italian /// Pizza|3.2
Pu5uzlZ05pqVlx6LcZbfgw|Minutello's Restaurant & Lounge|Pittsburgh|PA|40.4588237|-79.9223818|3.0|8|2|Italian /// Pizza|3.11
83_p9vIqOq1TUIf3_GD7bA|Tazza D'oro Cafe & Espresso Bar|Pittsburgh|PA|40.4748883|-79.9188657|4.5|106|1|Food /// Coffee & Tea /// Cafes|4.33
Ts4xsKPU7FNPPZRj-nRjIg|Buffalo Blues|Pittsburgh|PA|40.4583902|-79.9255146|3.0|64|2|BarsSports Bars /// Barbeque /// Nightlife|2.91
UtWJ8NGMg-3z28s0RzlUoQ|China Garden|Pittsburgh|PA|40.4579893|-79.9181411|3.0|14|1|Chinese|3.0
bZcqORBnVApUA2-SEn7VEQ|McDonald's|Pittsburgh|PA|40.4588455683|-79.9184470786|2.0|6|1|Burgers /// Fast Food|1.83
B9C6j80ob0f1pwi1Cnnd1Q|Pizza Parma|Pittsburgh|PA|40.4582251|-79.9251182|3.0|29|2|Pizza|2.82
tvXTHj9V5sgRoeVJW_FiTg|Jimmy Tsang's Chinese Restaurant|Pittsburgh|PA|40.4571291|-79.9334864|3.0|12|2|Chinese|2.82
2SwC8wqpZC4B9iFVTgYT9A|Casbah|Pittsburgh|PA|40.458138|-79.924797|4.0|251|3|Bars /// Mediterranean /// Wine Bars /// NightlifeDiners|4.03
PzG0XmAmtXFs6Fdnubf41g|Quiet Storm Vegetarian & Vegan Cafe|Pittsburgh|PA|40.464485|-79.935388|4.0|146|1|Food /// Coffee & Tea /// Vegetarian|3.8
lHP5STO7aomlEQixH8m1aA|Pizza Perfectta|Pittsburgh|PA|40.4572561|-79.9253542|4.0|60|2|Pizza|3.95
-iVcmhjfq79QoTWzrb6pKg|East End Food Co-Op|Pittsburgh|PA|40.4481991|-79.8954753|4.5|71|2|Health Markets /// Food /// VegetarianSpecialty Food|4.3
l_Wey2YC6NvVUIH8vTygGg|Cafe Zinho|Pittsburgh|PA|40.4578038|-79.9274383|4.0|61|2|Portuguese /// Mediterranean|4.16
Y3E5QDlKmjHD2zOSPASFIA|Maietta Restaurant|Pittsburgh|PA|40.415694|-79.98694|4.0|5|1||4.0
W7-Ybhe6JWJFXjcbmgvdyA|Great Wall Chinese Food|Pittsburgh|PA|40.4146974|-79.9876465|3.0|3|1|Chinese|2.5
qUeBDN0D8SC93KeAHhiL-g|Alla Famiglia|Pittsburgh|PA|40.4216133|-79.9934293|4.5|101|4|Italian|4.44
YXuvFMtygHPFEOEXgRtgLQ|No 1 China House|Pittsburgh|PA|40.4218885|-79.992839|2.5|5|1|Chinese|2.75
LltDzuzRbAJbSrqD4JH-3A|Hunan Wok Chinese Takeout|Pittsburgh|PA|40.3919558|-79.9874081|2.5|8|2|Chinese|2.5
VkqKyq09rDYMhFk5nElWWA|Bishop's Pizza|Pittsburgh|PA|40.393115|-79.986911|3.0|5|2|Food /// Ice Cream & Frozen Yogurt /// Pizza|3.0
QIJa5h2d65Bgh82zct7c7A|Frank & Shirley's Restaurant|Pittsburgh|PA|40.3886503|-79.9965975|4.0|20|1|American (Traditional) /// Diners|3.82
PTkChuI3GPCw-ZL1Iph76A|DiCarlo's Original Pizza|Pittsburgh|PA|40.3922377|-79.997446|4.0|9|1|Italian /// Pizza|4.14
BbIh5NTizhV4Fq_mLmNkpg|Long John Silver's|Pittsburgh|PA|40.387167|-79.98224|1.5|3|1|Seafood /// Fast Food|1.67
Ga0y-XHa4os_VvoHz21bfQ|Anthony's Pizza|Pittsburgh|PA|40.396531|-79.987919|3.5|7|2|Pizza|3.71
IxQ1ATP_Wg_QujO9nywzcQ|Max's Allegheny Tavern|Pittsburgh|PA|40.4551576|-79.999728|4.0|140|2|German /// Pubs /// Bars /// Nightlife|3.89
TyIsuojeKcTb4Acfg7xqew|China Taste|Pittsburgh|PA|40.4541341|-79.9981189|4.0|12|1|Chinese|4.17
oj8bMz76cKXQClpFTFNW9w|North Shore Deli|Pittsburgh|PA|40.4535473|-79.9992608|4.5|10|1|Delis|4.3
k1A8pNspBPinGDivxkuDSA|Clark Bar & Grill|Pittsburgh|PA|40.4489884|-80.0088714|3.5|11|2|Bars /// American (Traditional) /// Nightlife|3.5
-nO_qj9eP-os3baYyh8eNA|Pasta Too|Pittsburgh|PA|40.455833|-80.006512|4.0|4|N/A|Pizza|4.0
e5DtayybW4jbKcDBwEUmOQ|Mullin's Diner|Pittsburgh|PA|40.452646|-79.993788|4.0|9|1||3.78
CqHTknOJHZZncWzGtpbNsA|Ron's Pizza Palace|Pittsburgh|PA|40.4620001|-79.9838764|2.5|5|1|Pizza|2.5
OjzR6hUYasFReo0vhVn0-w|Teutonia Mannerchor|Pittsburgh|PA|40.455167|-79.994957|4.5|9|2|German /// Beer, Wine & Spirits /// Food|4.25
6AnorAMPkTdSDbUkOoV1Rw|Billy's Troy Hill Bistro|Pittsburgh|PA|40.4645128|-79.9823112|3.0|5|2|Cafes|2.83
49nxzKLr2qQnLF58qo2p1w|Heinz USA|Pittsburgh|PA|40.4550779|-79.9913252|5.0|4|1||4.67
rEKBr81s19Soh3dYj4bcGQ|Pizza Hut|Pittsburgh|PA|40.4563367|-80.0071993|2.5|6|2|Italian /// Pizza /// Chicken Wings|2.33
q_BKmbdlYfQJroJVHfYMUQ|Legends North Shore|Pittsburgh|PA|40.4566092|-80.0015054|4.0|83|2|Italian|4.01
99WYCuBEsO7OUCDWbbrrew|Subway|Pittsburgh|PA|40.4500892|-80.0181629|2.5|5|1|Fast Food /// Sandwiches|2.5
vMCCvnDU-Iz_D_pmbcMqzA|Peanutz|Pittsburgh|PA|40.4534897|-80.0012207|2.5|7|1|Bars /// American (New) /// Nightlife|2.43
hUV4bjXE8Ijd-pDNr8S6mA|Steves New York Hotdog Shop|Pittsburgh|PA|40.455929|-80.0065429|4.5|6|1|Hot Dogs|4.67
Od9niVya8G5BD3a1l2ss-g|Lillen's Restaurant|Pittsburgh|PA|40.4534811|-79.9994015|4.5|3|1||4.25
Z101WZaISochG6g7tI2ZVw|Atria's Restaurant|Pittsburgh|PA|40.4480678|-80.0042395|3.0|59|2|American (New) /// Sandwiches|2.85
Eixtf79t1_ZKaC-7J2kAWg|Pickles Pizza & Sandwich Emporium|Pittsburgh|PA|40.4535915|-80.0008071|3.5|14|1|Pizza|3.54
Z0OGW8PysysRXE0dR7QxQQ|Wilson's Bar-B-Q|Pittsburgh|PA|40.4562032|-80.0144357|4.0|17|2|Barbeque|4.0
I9-Ei8_KYtMjbixNJSCvwA|The Isaly Company|Pittsburgh|PA|40.4534946|-79.9993338|3.5|4|1|Food /// Ice Cream & Frozen Yogurt /// Delis|3.0
yfuoL_w76WFVHcGJbw0IIg|Nick's Place|Pittsburgh|PA|40.484693|-80.0355244|3.5|8|2|Pizza|3.5
AAcw9y30cRuMo0oa8UBiIw|Wiseguys Pizza|Pittsburgh|PA|40.4763098|-80.0311303|3.5|7|2|Pizza|3.43
YUZVBdGmagwXV-yOhR-1GQ|Miller's Seafood House|Pittsburgh|PA|40.4851129|-80.0416964|3.0|12|2|Seafood|2.75
OIL-eZX8d10jgWPLW-E7zA|Chubby's Pizza & Hoagies Northside|Pittsburgh|PA|40.4810675|-80.0413982|3.0|11|1|Pizza|3.0
PSlOtPIo28BvWOzdLmRRRQ|Knossos Gyros & Sis-Kabob|Pittsburgh|PA|40.3959965|-80.0350383|3.5|13|1|Polish /// Greek|3.58
wan0X-oHpLgGTPXqaICZCw|Huddle|Pittsburgh|PA|40.409125|-80.024957|4.0|10|1|Bars /// Nightlife|3.8
QnyzlVMyx0Exri-Lay10cA|Sushi Three|Pittsburgh|PA|40.3885629|-80.0493898|3.5|19|2|Sushi Bars /// Japanese|3.63
81sqVj0xHyJXGYT0ip5fmQ|Green Garden|Pittsburgh|PA|40.38892|-80.049921|2.5|9|2|Chinese|2.63
m61vZsAxmTEq3uiCjFjM8Q|Tom's Diner|Pittsburgh|PA|40.3942666|-80.0350906|3.5|33|1|Diners|3.31
93UCt9OgWYmypZCpXtUu8g|Beto's Pizza|Pittsburgh|PA|40.4127159|-80.0303354|4.0|127|1|Pizza|3.8
za5fND9-pXyVSk5rM28MsQ|Slapshots|Pittsburgh|PA|40.3930433|-80.0366408|2.5|3|N/A|Dive Bars /// Bars /// American (New) /// Nightlife|2.33
ORTRrw3ClZ0Ld0LgY1H_5g|Eat'n Park Restaurant|Pittsburgh|PA|40.3957953|-80.0335782|3.5|19|1|Fast Food /// American (Traditional)|3.69
9aw0t0rlACKkMaxsX0KlKA|Dairy Queen|Pittsburgh|PA|40.3959782|-80.0464983|3.5|7|1|Food /// Ice Cream & Frozen Yogurt /// Fast Food|3.83
5Udv4CASAXB2eH66TefWPQ|Cain's Saloon|Pittsburgh|PA|40.3897336|-80.0409102|3.5|87|2|American (New)|3.36
2Igiyhi82R8_QaaPplRmCw|The Dor-Stop Restaurant|Pittsburgh|PA|40.396012|-80.034727|4.5|237|1|Breakfast & Brunch /// Diners|4.33
Cex2R008tMFg8R5fAtf77w|Campiti's Don Pizzeria|Pittsburgh|PA|40.3966306|-80.0357966|3.5|31|1|Pizza|3.48
n7G2XFGvmS3duDJ4AzjKiQ|Namaste India|Pittsburgh|PA|40.420335|-80.030114|3.0|24|2|Indian|2.92
8tBfgYCI6Fz9xrSYCYCYXA|Maharaja Restaurant|Pittsburgh|PA|40.420335|-80.030114|3.5|10|1|Indian|3.3
Tb7hQ37UFA2QFaMwjFieQw|Arby's|Pittsburgh|PA|40.414716|-80.03063|2.5|6|N/A|Fast Food|2.0
qemCNgjeYGcFsRwxW9x4xw|Bado's Pizza Grill And Ale House|Pittsburgh|PA|40.3886105|-80.0499034|3.5|72|2|Bars /// Pizza /// Nightlife|3.62
iudRNo5Q8W7firUBYJEqQQ|Little Nipper's Pizza|Pittsburgh|PA|40.388527|-80.0495449|2.5|11|2|Pizza|2.38
2X5G4Ujq0s4Wfn4TC7gX0g|D's Six Pax & Dogz|Pittsburgh|PA|40.432022|-79.893834|4.5|266|2|Pubs /// Bars /// Hot Dogs /// Nightlife|4.29
XQ7elqSFIRogvqpiTZz-Wg|Dunning's Grill|Pittsburgh|PA|40.432599|-79.894243|3.0|21|2|American (Traditional)|3.0
JL5B_s1EoN4zIru4JSw4Qg|Taco Bell|Pittsburgh|PA|40.427135|-79.890649|3.0|5|1|Fast Food /// Mexican /// Tex-Mex|2.67
IafkUjO5CiXAu9LfB4_Sgg|Rudy Martino Original House of Submarines|Pittsburgh|PA|40.421259|-79.890285|5.0|4|1|Sandwiches /// Diners|5.0
OS1fGOcx_Erie5gujWIFNQ|China House II|Swissvale|PA|40.422307|-79.8893217|3.5|3|1|Chinese|3.5
DzOPHyrG2XuVqKEvHCnN7w|Triangle Bar & Grill|Pittsburgh|PA|40.4175696|-79.8879525|4.5|43|1|Nightlife /// Bars /// Sandwiches|4.49
nqRNOug4OMrYTTZg-qLxXA|Veltre's Pizza|Swissvale|PA|40.4209717|-79.886521|4.0|13|2|Pizza|4.23
K8Ebs8G1rwc3DBdznHvDxg|Wendy's|Pittsburgh|PA|40.42523807|-79.8883623271|2.5|5|1|Burgers /// Fast Food|2.4
h3la53L9-OX_HlfeAySh0Q|Applebee's|Pittsburgh|PA|40.4273028|-79.8886844|2.5|13|2|Bars /// American (Traditional) /// Burgers /// Nightlife /// Sports Bars|2.46
1vQLTKwmcmZXtNzfKEvMmA|Benihana|Pittsburgh|PA|40.392287|-80.070269|3.0|45|3|Sushi Bars /// Japanese|2.93
hhNlQWaKqGbMPoeZHoL-IQ|Mad Mex - South Hills|Pittsburgh|PA|40.3906976|-80.070806|3.5|84|2|Mexican /// Tex-Mex|3.43
GEw1pLdbMlJecvQkKBIgSw|Pizza Hut|Pittsburgh|PA|40.3954394|-80.0657414|2.0|3|1|Italian /// Pizza /// Chicken Wings|2.0
SgQYRICpMdWCmY7wM2Cmcw|Max & Erma's|Pittsburgh|PA|40.3932957|-80.0656653|2.5|22|2|American (Traditional)|2.65
m0QsJDntW1MrWCxBVFwuAg|Wendy's|Pittsburgh|PA|40.392802|-80.062098|1.5|5|2|Burgers /// Fast Food|1.5
uwiD9jxs09xxXG0by_xKuA|Bruegger's Bagels|Pittsburgh|PA|40.392551|-80.061579|3.0|8|1|Food /// Sandwiches /// Bagels /// Breakfast & Brunch|2.75
mrbfnIXD5U4pMxuZgKedOw|Sichuan House Chinese Restaurant|Pittsburgh|PA|40.3923379|-80.0662223|3.5|3|2|Chinese|3.67
sNmQJQWEVGheCnw5Tf4Phg|Panera Bread|Pittsburgh|PA|40.395932|-80.067397|3.5|16|2|Soup /// Sandwiches /// Salad|3.58
jrSGpWnVJy8jqgN6XSC7Nw|Aracri's Greentree Inn|Pittsburgh|PA|40.4168479|-80.0453929|4.0|13|3|American (New)|3.75
EtnMSBRlMQWrdTla-jz9RA|Tramp's Restaurant|Pittsburgh|PA|40.4356718|-80.0340934|3.0|5|1|Bars /// American (Traditional) /// Nightlife|3.33
KZXtzoI84iI1CEcAnD7OPA|Vincent's of Greentree|Pittsburgh|PA|40.4210420362|-80.0501069554|3.5|43|2|Italian /// Pizza|3.42
zpNGtjBlIkDq_PLGSCPlAg|Olive Garden Italian Restaurant|Pittsburgh|PA|40.4198341|-80.0456525|3.5|24|2|Bars /// Salad /// Wine Bars /// Nightlife /// Italian|3.32
ZS7-I04iDm4oRP_GJsJqrA|Boston Market|Pittsburgh|PA|40.418092|-80.0460082|4.0|9|1|Event Planning & Services /// American (Traditional) /// Caterers /// Comfort Food|3.5
FtjvnLhh51ZBYEpKAARaFQ|Soho|Pittsburgh|PA|40.4483207|-80.0043186|3.0|93|2|American (New)|3.0
z4cCguoHdU48pj6sXMIzqg|Original Fish Market|Pittsburgh|PA|40.4441681|-79.994852|2.5|74|3|Seafood|2.57
sbTF0cLKZH6_BP8BLARVDg|Bossa Nova|Pittsburgh|PA|40.4439388|-80.0006057|2.5|28|3|Tapas Bars /// Bars /// Nightlife|2.73
OxIeMVcop5oxBUWANi-1Rw|Olive Or Twist|Pittsburgh|PA|40.4429033|-80.0025614|3.5|181|2|Bars /// Cocktail Bars /// Nightlife /// Lounges /// American (New)|3.64
imzKM9-mgN1Yk_RIXx3IgA|Sunseri Jimmy & Nino|Pittsburgh|PA|40.450964|-79.984628|4.0|23|1|Food /// Ethnic Food /// Specialty FoodItalian|3.72
IEHaU93HpEbdUO4z4bKzDw|Jo Jo's Restaurant|Pittsburgh|PA|40.4540368|-79.9814643|3.5|19|1|American (Traditional)|3.67
NeUf9FyCCIN4MEseNyqkXQ|Primanti Bros|Pittsburgh|PA|40.440287|-80.002585|3.5|420|1|Chicken Wings /// Sandwiches|3.38
JcP-IIrZkW_Yyv4a0yLRCw|Monte Cello's Downtown|Pittsburgh|PA|40.4077836|-80.0930463|3.0|10|1|Pizza /// Italian /// Sandwiches|2.9
4LcFKTr6Ah87VcxW2z5e6w|McDonald's|Pittsburgh|PA|40.4422917|-79.9989455|2.5|4|1|Burgers /// Fast Food|2.75
buVALudg30kgkDusqB3yJw|Reyna Foods|Pittsburgh|PA|40.4514856|-79.9834035|4.5|87|1|Food /// Grocery /// Mexican|4.21
wHi8ODv7TGmeUB02XoX-mA|Roland's Seafood Grill|Pittsburgh|PA|40.4505899|-79.9842832|2.5|171|2|Seafood|2.65
WXpi9z1bqF9raZSW8z70Ow|Salonika Gyros|Pittsburgh|PA|40.4432077|-80.0021285|3.5|37|1|Greek /// Mediterranean|3.42
j7kgLc4Uys_sb-H7_Velcg|Brown Bag Delis|Pittsburgh|PA|40.4442087|-79.9946687|2.5|7|1|DelisEvent Planning & Services /// Caterers|2.82
DhDNNHZtaBxYNSqJz64ixg|La Gondola Pizzeria & Restaurant|Pittsburgh|PA|40.4400655|-80.0025144|4.5|27|1|Italian|4.24
PxP19Rb88OQKiSMl2oWNsg|Christos Mediterranean Grille|Pittsburgh|PA|40.4432466658|-80.0022544159|3.0|61|2|Greek /// Mediterranean /// Middle Eastern|3.05
9mwShpTgZofOujt4JfyGmw|Spaghetti Warehouse|Pittsburgh|PA|40.455916|-79.979271|2.5|92|2|Italian|2.48
90Fqfzd8zD9AuuNBSv9lAg|Morton's The Steakhouse|Pittsburgh|PA|40.442533|-80.000855|4.0|61|4|Steakhouses|3.83
pfS0Bd-sXZyMNr73kJPeaw|Gateway Center Cafeteria|Pittsburgh|PA|40.442222|-80.0044807|4.0|4|1|Cafeteria|3.33
KEzIorUdFjqCuxbRxKPghA|Mamma Lucia Pizza|Pittsburgh|PA|40.4403955|-80.0010018|4.0|8|1|Pizza|3.88
pvGT62T6Ci1LKOS9DL42pg|Peppi's|Pittsburgh|PA|40.436969|-80.0004543|4.0|20|1|Sandwiches|4.1
OT3yVpDrDVITDCIYox8d9A|Buon Giorno Cafe|Pittsburgh|PA|40.43866|-80.005135|3.5|5|2|Italian|3.4
8AskFIgGxqNb8RbcDCAfmA|Madonna's Restaurant|Pittsburgh|PA|40.4395902449|-79.9992012978|4.0|7|1|Mexican|4.0
A2XkbJ07hrR80t0EFgLikQ|Smithfield Cafe|Pittsburgh|PA|40.442558|-79.997214|3.5|16|1|American (Traditional) /// Cafes|3.5
L5387MoRyx9orlRyYfCSPA|Andy's Sushi Bar|Pittsburgh|PA|40.450111|-79.9858749|4.0|43|2|Sushi Bars|4.05
dHDi4wCcjsOR6vcZ8oOIoA|Sushi Kim Restaurant|Pittsburgh|PA|40.4464777|-79.9916741|3.0|93|2|Korean /// Sushi Bars|3.21
41CXLCeB8z2oNdIOvnrzIA|Redfin Blues|Pittsburgh|PA|40.4634021|-79.9776298|2.5|56|2|Seafood|2.63
OhwF2JDqlYMZl5Rp3WRBog|Arby's|Pittsburgh|PA|40.4421708|-79.9990003|1.5|3|1|American (New)|2.0
l2gPB9mqiHSbpwSUa7zrjg|F. Tambellini Ristorante|Pittsburgh|PA|40.443577|-80.000162|2.0|17|2|Italian|1.88
gfpl_GyyY5uj6zJnIdzImQ|Caffe Amante|Pittsburgh|PA|40.441888|-80.003443|3.5|10|2|Cafes|3.3
l-OmDgEd4QkZpyXVpkp2yA|Villa Reale Pizzeria & Restaurant|Pittsburgh|PA|40.4421419|-79.996955|3.5|25|2|Pizza|3.26
0FgwBx7pgmNdUtsd_T8UYQ|Ruths Chris Steak House|Pittsburgh|PA|40.4394267|-80.0038037|4.0|64|4|Steakhouses|3.89
SzHTdZR3yY1WBYUxkVxmUQ|Papa J's Centro|Pittsburgh|PA|40.4389116|-80.0032374|3.0|18|2|Italian|3.28
xgcZN3F2f9LxLASQK_xzhw|Smallman Street Deli|Pittsburgh|PA|40.4582377|-79.97509|4.0|24|1|Delis|4.1
_aGVicux2dJm9sqzLSCJtg|Subway|Pittsburgh|PA|40.4427514|-79.9997098|3.5|3|1|Fast Food /// Sandwiches|3.33
uUorjstNslr3gkIsVGtQAg|Max & Erma's Restaurants|Pittsburgh|PA|40.4431765|-80.0042813|3.5|15|2|American (Traditional)|3.24
GSiHJG8LqTn5ZQAY1r9q9w|Liang's Hunan Restaurant|Pittsburgh|PA|40.4434132|-79.9961509|1.5|7|1|Chinese|1.38
0Lsd35rHY6UtPFHjjxJ1LA|1902 Tavern|Pittsburgh|PA|40.441207|-80.0031108|2.5|7|3|American (Traditional)|2.75
Bza-l75OiKcMRmTYILpyfQ|Wiener World|Pittsburgh|PA|40.4422344518|-79.9971354078|3.5|18|1|Hot Dogs|3.58
-TSFapUMwdyyxoi2egkOhw|Sammy's Famous Corned Beef|Pittsburgh|PA|40.439202|-79.9989485|2.5|8|1|Steakhouses|2.88
1E53rS8afK2jiLod8Jwy7A|Fu Lai Chinese Restaurant|Pittsburgh|PA|40.4428479|-80.0031124|2.5|22|1|Chinese|2.47
j0uzPYXgu-hmkvuGnj-B1w|Mark's Grille & Catering|Pittsburgh|PA|40.444221|-79.997341|3.5|5|1|Caterers /// American (Traditional) /// Event Planning & Services|4.0
AH1PrZQDIdjpKgy1z8XxUg|Zorba's Gyros|Pittsburgh|PA|40.4387143|-79.9994904|3.5|23|1|Greek /// Sandwiches /// Salad|3.75
XmdTkxKyJd7TuDLoiic1kg|Lidia's|Pittsburgh|PA|40.4484631|-79.9894086|3.5|277|3|Italian|3.64
HDTv_rnmSL8AQ04_zTWARA|Sports Rock Cafe|Pittsburgh|PA|40.4484631|-79.9894086|2.5|7|2|American (Traditional)|2.29
nBl_NeArpL08MpoghDiA_A|Ephesus Mediterranean Kitchen|Pittsburgh|PA|40.4398391119|-80.0028862632|3.5|74|2|Pizza|3.76
J011r7mUV1QhgLJ7GkrtMw|Peppi's|Pittsburgh|PA|40.450237|-79.985665|4.0|39|1|Burgers|4.06
-KQ283hJkBO12u8XOrlCcQ|Original Oyster House|Pittsburgh|PA|40.4410134|-80.0019815|3.0|91|1|Seafood|3.05
SvoJ3Y3uqDfB4iGUaWXh8Q|Pizza Parma|Pittsburgh|PA|40.44389|-79.9985899|3.0|36|1|Pizza|3.12
6xEl2PDJulIp1PfWqa7-aA|Mullaneys Harp and Fiddle|Pittsburgh|PA|40.4534271|-79.9809286|3.0|30|2|Pubs /// Irish /// Nightlife /// Bars|3.07
GQloL8yRHymE0SGZq-B0zQ|My Ngoc Restaurant|Pittsburgh|PA|40.4519288|-79.9824216|3.0|12|1|Vietnamese|3.2
Lm_mR5xDF91OeZw97ch41g|The Lemon Grass Cafe|Pittsburgh|PA|40.4432622|-80.0026232|2.5|29|2|Thai|2.32
aj4XHn7jZ48euP4g8ape-Q|San Remo Pizza|Pittsburgh|PA|40.4380683|-80.0043039|3.5|6|1|Pizza|3.4
-v31BEquLxeVPgvFHburUQ|Casa Del Sole Pizza|Aspinwall|PA|40.4905179|-79.9040162|3.5|7|1|Pizza|3.75
9dRhseYpES0LO0iNDLHtrg|Calabria's Italian Restaurant|Pittsburgh|PA|40.4654547|-79.9447111|2.5|3|N/A|Pizza /// Italian|2.33
KnlNwiIELDWAR686Bk2WJg|China House|Pittsburgh|PA|40.462831|-79.9516804|4.0|15|1|Chinese|4.0
XzaJf6WzpU7RsXTXzx72Xg|Cafe Sam|Pittsburgh|PA|40.456227|-79.940241|3.5|47|2|American (New)|3.63
PTS4MxQel-xzj5qWxVn3LQ|Angelo's Pizzeria|Pittsburgh|PA|40.4608026|-79.9479065|3.5|44|1|Pizza|3.73
IvgKdlte_JNdd17XRxkOrg|Graziano's Pizzeria|Pittsburgh|PA|40.4659283|-79.9548907|3.5|20|1|Pizza|3.33
bDK_jzy3Shx7jfn8_plNoA|Pizza Italia|Pittsburgh|PA|40.4626986|-79.9515229|4.5|24|2|Pizza|4.28
PhIGoo9g6GBrqgH_6yZXXQ|People's Indian Restaurant|Pittsburgh|PA|40.4649763|-79.9412031|3.5|54|2|Indian|3.7
uBW3PIKqc-_eyG1_vdJn1w|Pho Minh|Pittsburgh|PA|40.4653958|-79.9445114|4.0|58|1|Vietnamese|3.79
DsxLIr-b6WlDn9YNsVBu_A|Groceria Italiana|Pittsburgh|PA|40.4618603|-79.948546|4.5|24|1|Food /// Grocery /// Delis|4.55
FD6OocZdFUfE2J5H0WN4fA|Armand's Bar|Pittsburgh|PA|40.4614622|-79.9481741|3.5|15|1|Nightlife /// Bars /// Sandwiches|3.33
LN3OCT1xOedbf65xKzFSNw|Taste of India|Pittsburgh|PA|40.4657149|-79.953504|4.0|83|2|Indian|4.09
tQpYnf3P3Q_OQLYYJvlV-A|Nico's Recovery Room|Pittsburgh|PA|40.4636708|-79.948991|3.5|22|1|Bars /// American (Traditional) /// Nightlife|3.53
KH6stvNdq_aV0HvKw8P5yA|Donatelli's Italian Food Center|Pittsburgh|PA|40.4620697|-79.9493553|3.5|14|1|Food /// Grocery /// Delis|3.5
nUISXnW2Jo9ovnoFBIUY_Q|D'Amico's|Pittsburgh|PA|40.4611146|-79.9485427|2.5|9|2|Italian|2.71
dxCqGkhtXq-9fYEsX7Mf6Q|Tram's Kitchen|Pittsburgh|PA|40.4653036|-79.9559332|4.0|208|1|Vietnamese|3.93
--UE_y6auTgq3FXlvUMkbw|Ritters Diner|Pittsburgh|PA|40.45639|-79.941311|3.5|133|1|American (Traditional) /// Diners|3.25
YTqSkgOiiI9HG3hNH7ovfg|Lombardozzi's Restaurant|Pittsburgh|PA|40.4606393|-79.9471799|3.5|21|2|SeafoodItalian|3.26
vgXE1I7c9ElcfYyZfQiN1Q|Tessaro's|Pittsburgh|PA|40.4627572|-79.9506735|4.0|268|2|Burgers /// American (Traditional) /// Steakhouses|3.89
-Nanlb7SYXObqQ6dZ49UOg|Pleasure Bar and Restaurant|Pittsburgh|PA|40.461739|-79.9486639|3.0|54|2|BarsNightlife /// Italian|2.78
3zgswf_NfBJpeAoWeTkgMA|Silky's Pub|Pittsburgh|PA|40.458267|-79.942274|4.0|52|2|Pubs /// Bars /// American (Traditional) /// Nightlife|3.73
uOwuJJhGaiAzuaDY7-o14g|Boston Market|Pittsburgh|PA|40.4555475|-79.9415246|3.5|13|1|Event Planning & Services /// American (Traditional) /// Caterers /// Comfort Food|3.83
7XXmky6YYjsvKFwho_eavg|Lot 17 |Pittsburgh|PA|40.4625543|-79.950173|4.0|66|2|Bars /// American (Traditional) /// Nightlife|3.85
o_wRqOpli9kyZGXlJtLLdA|The Bloomfield Sandwich Shop|Pittsburgh|PA|40.462632|-79.950246|4.0|40|1|Breakfast & Brunch /// Sandwiches|4.05
5MChfa-jZfMo3vBpolkSbw|Alexander's Italian Bistro|Pittsburgh|PA|40.458394|-79.9436629|3.5|78|2|Italian|3.57
YDCxBTJmF-lLCk1Qx8vDfg|Sammy's Famous Corned Beef|Pittsburgh|PA|40.4655702|-79.9557489|3.0|6|1|Fast Food|2.6
sxeuOMBRllOHXJTaUlI9kQ|Thai Cuisine|Pittsburgh|PA|40.4625496053|-79.9497600693|4.0|162|2|Thai|4.15
ptmsW2SSeFD2I6vspJs0lQ|The Getaway Café|Pittsburgh|PA|40.384633|-80.015649|3.0|27|2|American (New)|2.89
r8jeeS3k_diihMDSu9IjlA|Fiori's Pizzaria|Pittsburgh|PA|40.405245|-80.018538|4.5|150|1|Italian /// Pizza|4.4
cH8I7JgPXcrcutT1a3YrjQ|It's Greek To Me|Pittsburgh|PA|40.3919796|-80.0173011|4.5|21|2|Greek|4.32
dQjaHoo89bLymdMm4S5_1g|Moonlite Cafe|Pittsburgh|PA|40.3955323|-80.0228158|4.5|20|2|Italian|4.44
UjJMQguryo1jypomvOCZgg|Bellisario's Pizza Palace|Pittsburgh|PA|40.3830261|-80.0153449|4.0|15|1|Italian /// Pizza|3.71
dpRsK3JyaD3GKorVWzQUmA|Wendy's|Pittsburgh|PA|40.4002649|-80.0241505|2.5|6|1|Burgers /// Fast Food|2.4
aIzx9R8MN9VgSSJt1jy5TA|Carhops Sub Shop|Pittsburgh|PA|40.399184|-80.025491|4.5|6|1|Sandwiches|4.6
vWnwaD-kykqiEc2Q0hbYsw|McDonald's|Pittsburgh|PA|40.3988343|-80.026459|2.0|7|1|Burgers /// Fast Food|2.2
T4D7wX6GuCYChwRmser-0A|The Tong Garden|Pittsburgh|PA|40.391756|-80.017768|4.0|9|2|Chinese|4.0
cESul2ojJOjadz-7BKB5eg|Amels|Pittsburgh|PA|40.3830261|-80.0153449|4.0|44|2|Middle Eastern /// Mediterranean|4.13
xUf11yTcoRagwNiJcY8GAA|McDonald's|Pittsburgh|PA|40.4273917|-80.0533614|2.0|5|2|Burgers /// Fast Food|1.8
hbFCv2Rginf9zjai-lKUNg|Sesame Inn Chinese Restaurant|Pittsburgh|PA|40.3796549065|-80.0448643438|4.0|44|2|Chinese|3.83
vs3UrHaSnzFOxmFU2UAfxQ|China Gate|Pittsburgh|PA|40.357213|-80.0520951|2.5|17|2|Chinese|2.56
6-rJjW6ITl5o_FliiNgZRA|Il Pizzaiolo|Pittsburgh|PA|40.380192|-80.044459|4.0|170|2|Italian /// Pizza|3.86
mPlWLIA4pkHMRtlQDm6UyQ|Little Tokyo|Pittsburgh|PA|40.3818121|-80.0444905|4.0|107|2|Sushi Bars /// Japanese|4.21
sa3xqElJEv97MazozLeszw|Mineo's Pizza House|Pittsburgh|PA|40.3798256|-80.0446104|4.0|32|1|Pizza|3.9
MkrQV_nyxyC1F5ut5KxDMQ|Panera Bread|Mount Lebanon|PA|40.3573572094|-80.0519013405|3.5|11|1|Soup /// Sandwiches /// Salad|3.45
jJfTh2O3M2Q716akd9Dr9w|The Saloon of Mt. Lebanon|Pittsburgh|PA|40.3821568|-80.0441272|3.5|43|1|Bars /// American (Traditional) /// Burgers /// Nightlife /// Sports Bars|3.47
9SPwF-vRgtuHxciFxv5YLA|Soba|Pittsburgh|PA|40.4571033|-79.9296345|4.0|207|3|Asian Fusion|3.95
Cy9XgM3ZG2jZ1ganvolb6Q|Umi|Pittsburgh|PA|40.4571033|-79.9296345|4.0|91|4|Japanese|4.11
rgmptwPbBH1wLpiBHcbIhA|Harris Grill|Pittsburgh|PA|40.455955|-79.931338|3.5|235|2|Bars /// American (Traditional) /// Nightlife|3.67
i_nkxbd7feg44QkdbG05UA|The Elbow Room|Pittsburgh|PA|40.4516538606|-79.9327178369|3.0|86|2|American (New)|3.27
vSZDiKiF8vf9zt_BcDL7GQ|William Penn Tavern|Pittsburgh|PA|40.4514452209|-79.9337325513|3.5|49|1|BarsAmerican (Traditional) /// Sports Bars /// Nightlife|3.56
DkX3YoxhH4uADsgVgQThew|Cappy's Cafe|Pittsburgh|PA|40.45109|-79.9343681|3.0|45|1|Bars /// American (Traditional) /// Nightlife|3.09
sQWSHCIH_HUT4HUXaxDaBA|Bruegger's Bagels|Pittsburgh|PA|40.4507424|-79.9357149|3.0|17|1|Food /// Sandwiches /// Bagels /// Breakfast & Brunch|3.25
rUQfZOengMpXFkLvJrNJ3g|The Inn on Negley|Pittsburgh|PA|40.453359|-79.931454|4.5|23|2|Food /// Tea Rooms /// Breakfast & Brunch /// Bed & Breakfast /// Hotels & Travel|4.5
Oq5MyNxNi-xuXdPOWR9O_g|Doc's Place|Pittsburgh|PA|40.4509182|-79.9338159|3.0|21|2|Bars /// Pizza /// Nightlife|3.0
xgK6AAhJ-cYBUCSaLzgTuw|Girasole Restaurant|Pittsburgh|PA|40.4512017|-79.9345853|3.5|181|2|Italian|3.66
Z-BI5HJmC2HcpiVuXwVM3A|La Feria|Pittsburgh|PA|40.451723|-79.932833|4.0|64|2|Peruvian /// Latin American|3.93
kxZIebwbpe_ddry6EKMdCg|Village Pizza Bar & Grill|Pittsburgh|PA|40.4504931|-79.9351109|4.0|16|1|Pizza|4.17
TxKmAsKQjND5vbhBdUSyIA|P&G's Pamela's Diner|Pittsburgh|PA|40.4515828358|-79.932869839|4.0|204|1|Breakfast & Brunch|3.99
cmGR1HS9ms233roSllcglw|Crepes Parisiennes|Pittsburgh|PA|40.4516361|-79.9333919|4.0|73|1|Breakfast & Brunch /// Creperies /// French|4.03
rm1hBa1HPcLhUSwuincX2Q|Historic Sunnyledge Hotel of Shadyside|Pittsburgh|PA|40.4475613142|-79.9373323726|3.0|8|2|Hotels & TravelAmerican (New) /// Event Planning & Services /// Hotels|2.88
mXHBxHrAJPnPWnm_OKuZTQ|Wendy's|Pittsburgh|PA|40.4571266518|-79.9377973675|2.5|19|1|Burgers /// Fast Food|2.33
Q9BXMPu2HnRDMq9X_2rHrQ|China Palace|Pittsburgh|PA|40.450866|-79.933919|3.0|72|2|Chinese|2.95
jeS38QWMVkA6S-4lMi1Frg|Walnut Grill|Pittsburgh|PA|40.4508247|-79.9334641|3.0|31|2|American (New)|2.86
cwyq1QIa4fNISUap4PCs_A|Castle Place|Pittsburgh|PA|40.369991|-80.034378|3.5|4|1|Chinese|4.0
MFtTSa1OTC0rFxBxpXzKfg|The Pizza|Pittsburgh|PA|40.360768|-80.0283874|3.5|5|1|Pizza|3.25
q5g_zeAdwsZQp0p9GPnTJw|Nick's Pizza|Castle Shannon|PA|40.3695859|-80.0348341|3.5|10|1|Pizza|3.38
lI-LWQETbT8RivEHt-7jJg|China Village|Pittsburgh|PA|40.3684469|-80.0130696|4.5|6|2|Chinese|4.6
bg1e__l7Jh3oDhasW5KFvw|Burger King|Pittsburgh|PA|40.369751|-80.011672|3.5|3|1|Burgers /// Fast Food|4.0
jVVyiaDle64frINmX2hgqw|Jb's Pizza Place|Pittsburgh|PA|40.3822222|-79.9972062|2.5|3|1|Pizza|2.0
L7KHl7v7g3gDxUEpAt9z-g|Royal Place Restaurant|Pittsburgh|PA|40.3793534|-80.0016027|2.5|4|4|American (Traditional)Italian|2.25
7QBJDNVH6VPAStSvOM_lZA|Silver Palace Chinese Restaurant|Pittsburgh|PA|40.3773782|-80.0037775|4.0|12|1|Chinese|4.0
Ln34kwDUNZPLhVhUqauLWQ|Calabria's|Pittsburgh|PA|40.373453|-80.006247|3.0|20|2|American (Traditional)Italian|2.8
hxWwXE1mqNuSghYBr5bLWg|Danny's Pizza|Pittsburgh|PA|40.3500069|-79.9763367|4.5|8|1|Pizza|4.43
WrP8KeKTlWcjqQPj2DJKGQ|Thee Olde Place Inn|Pittsburgh|PA|40.3517314|-79.9612707|4.0|9|2|American (New) /// Diners|3.75
1QhIsblyEViEWc53FmxH_Q|Wendy's|Pittsburgh|PA|40.4869258|-79.8906011|2.5|3|N/A|Burgers /// Fast Food|1.5
-tcf1WSfc2iNRf75AMW6pw|Uncle Sam's Submarines|Pittsburgh|PA|40.4890230106|-79.8926940962|3.5|24|2|Sandwiches|3.48
dwz55gqPZwSBD74yFFb27g|Tai Pei|Pittsburgh|PA|40.4876529256|-79.8806163564|3.0|44|2|Sushi Bars /// Taiwanese /// Chinese|3.08
rEpubmz577MOhpDmWPH1uw|Thai Place Restaurant|Pittsburgh|PA|40.4869455|-79.8857437|3.0|18|2|Thai|3.24
ufyh6h4GsR-RYY2lC_Iz7w|Starlite Lounge|Pittsburgh|PA|40.493969|-79.860283|3.0|20|2|Bars /// American (Traditional) /// Nightlife /// Lounges|3.12
PFAOxw4Gl8gm7PGWvohCWg|Applebee's|Pittsburgh|PA|40.3903858|-80.0708968|4.0|9|2|Bars /// American (Traditional) /// Burgers /// Nightlife /// Sports Bars|4.0
Z6q8yxApM9wdnddzjcSUgQ|New Dragon Chinese Restaurant|Delmont|PA|40.376268|-80.069056|2.5|3|1|Chinese|2.5
xkrhaKM1YtiLEcorBI5zcQ|Demetrios Restaurant|Belmont|NC|35.2486667749|-81.0212416554|3.5|5|1|Pizza /// Italian|3.4
qm6yyQUe8Ln29NzDfWqxVA|Cherubs Craft and Coffee Shop|Belmont|NC|35.2431321|-81.0380587|5.0|5|1|Cafes|4.8
EZrCQtZxiEo1kkAYt2EQqw|Wendy's|Belmont|NC|35.253329|-81.027326|2.5|7|1|Burgers /// Fast Food|2.43
HPcrrz8uipPQyK-5zd6w9Q|Pizza Hut|Belmont|NC|35.2546334|-81.0277219|2.5|7|2|Italian /// Pizza /// Chicken Wings|2.43
sPvUuYAF2a1LnYaw8iCm9A|Bojangles Restaurant|Belmont|NC|35.252225|-81.043273|4.5|3|2|Fast Food|4.5
cbLaFQJOfzDy_TxMkPee9Q|White's Restaurant|Belmont|NC|35.2427641928|-81.0281556595|4.5|7|1|Breakfast & Brunch|4.5
W-2Tuk4uWYm5BsdlWju8wg|The Captain's Cap|Belmont|NC|35.2534228|-81.0266346|3.0|14|2|Seafood|3.18
Gz2bNUss7Y_dyy_lRtVGEw|Catawba Fountain & Grill|Belmont|NC|35.243155|-81.028482|3.5|4|1|American (Traditional) /// Barbeque|3.5
c-Pa13Lq1eB0VwLVoyJ7lg|Sub Corral Sandwich Shop|Belmont|NC|35.2510265666|-81.0253293812|2.5|9|1|Sandwiches|2.55
Ue9LjsXuWms-CMHMxqo3zQ|Papa John's Pizza|Belmont|NC|35.2542070335|-81.0416600544|3.5|4|1|Pizza|3.5
vtJAnB4gBgTJKv3mOnOF_w|Taco Bell|Belmont|NC|35.252694|-81.041502|4.0|4|1|Fast Food /// Mexican /// Tex-Mex|3.75
qJTHaHFKQIKXKX3I17Nw9w|McDonald's|Belmont|NC|35.2517326|-81.0431716|2.5|13|1|Burgers /// Fast Food|2.55
JkF2CPy63ivoK1FUqprQ7w|New China|Belmont|NC|35.2527471|-81.0422163|4.0|9|1|Chinese|3.57
OkV0BMQxRRYJ5t5sbeU93A|Belmont Food & Beverage|Belmont|NC|35.2445503|-81.0374577|3.0|13|2|American (New) /// Event Planning & Services /// Caterers|3.17
sJtGRBWYUj013nkFA4Hrdg|Tony's Pizza|Huntersville|NC|35.357556|-80.868144|4.5|65|1|Italian /// Pizza /// Sandwiches|4.27
qYuSoVBS_1i_btLzFefDeg|New York Pizza Express|Matthews|NC|35.084143|-80.697074|4.0|19|2|Pizza|3.84
5vLVIomtminS_q8itJquEQ|Burger King|Matthews|NC|35.085443|-80.696968|2.0|4|1|Burgers|1.75
CnuxQ4_7j9MKyQiO5YWsFA|McDonald's|Matthews|NC|35.001676|-80.668341|1.0|3|N/A|Burgers /// Fast Food|1.0
HlvPa_iypwt5RwUHl-Dz3g|Panda Chinese Restaurant|Matthews|NC|35.0263771|-80.7630454|2.5|7|1|Chinese|2.29
2kCgC1VAEs3K8SJ86S6Fog|Papas Pizza To-Go|Matthews|NC|35.0264103|-80.7630602|3.5|7|2|Pizza|4.0
2VuPoaFPktvtAqTX_Fzc-A|El Valle Mexican Restaurant|Mount Holly|NC|35.3035634|-81.0272196|3.0|11|2|Mexican|3.18
jyF0rwmQEIdDWVtP5vlf3w|The Brightstar Grill|Mount Holly|NC|35.2912146|-81.0241586|4.0|26|1|American (Traditional)|4.12
Z2ks3quiwbkMDY1sVDW9OQ|McDonald's|Mount Holly|NC|35.2889229|-81.020392|1.5|4|1|Burgers /// Fast Food|1.83
SW2i5cWNi-NyaOCqYlg49g|Lowesville Cafe|Mount Holly|NC|35.363053|-80.9872286|4.0|5|1|Cafes|4.0
lX3XYcMWoRlHjrmkoGNefQ|TLC Wings & Grill|Pineville|NC|35.086948|-80.871878|4.0|20|1|Chicken Wings|3.55
ji0VxQpFQvzzYMy9fY5fvw|Sarku Japan|Pineville|NC|35.0822|-80.8772242|3.0|4|1||3.0
friprEn-aT_WmhmIF3pGmg|Firehouse Subs|Pineville|NC|35.0869866|-80.8717654|4.0|6|1|Delis /// Fast Food /// Sandwiches|4.17
2_0P2AmSSFtPgddio0MgYA|Waldhorn Restaurant|Pineville|NC|35.076521|-80.882357|4.5|158|2|German|4.3
BO0zz8gort7o-6KuecIv3Q|Red Lobster|Pineville|NC|35.0866339|-80.87693|2.5|35|2|Seafood /// American (Traditional)|2.61
_Bz6YWNI5bi0gqQI4GLvqQ|Jason's Deli|Pineville|NC|35.0883861|-80.8788478|4.0|44|1|Delis|4.02
DLvH3Ck9R8fO_I89maDNIA|Captain D's|Pineville|NC|35.089113|-80.876906|3.0|6|1||2.83
SVKC_-gIQFkHElZ6bFsE6g|Buca di Beppo Italian Restaurant|Pineville|NC|35.0852900556|-80.8798456192|3.0|75|2|Pizza /// Italian|2.77
l2ynPEBj9S_yN9gjg32tBA|Taco Bell|Pineville|NC|35.084106|-80.878954|3.5|9|1|Fast Food /// Mexican /// Tex-Mex|3.38
AUDuCSWYzzRP3H2w7TxtuQ|LongHorn Steakhouse|Pineville|NC|35.088633|-80.8770119|3.5|44|2|American (Traditional) /// Steakhouses|3.35
Bvj-UP9khEzuwDIW7eJNOg|Lone Star Steakhouse & Saloon|Pineville|NC|35.0883861|-80.8788478|2.5|4|N/A|Steakhouses|2.0
Gw5POFxBRoJxN_ZYhk6lgQ|Bruegger's Bagels|Charlotte|NC|35.089035|-80.8670549|4.0|15|1|Food /// Sandwiches /// Bagels /// Breakfast & Brunch|3.77
DE_11y6_vCmPBlbeYskh-Q|Applebee's|Pineville|NC|35.0857058|-80.8789517|2.5|11|2|Bars /// American (Traditional) /// Nightlife /// Steakhouses /// Sports Bars|2.55
4WsTFTH8GgnyFHwrH9nHzA|Olive Garden Italian Restaurant|Pineville|NC|35.086418|-80.877383|3.0|56|2|Bars /// Salad /// Wine Bars /// Nightlife /// Italian|2.82
QMZe84KFyZy0IlCBb1v91A|Tony Roma's|Pineville|NC|35.0855733|-80.8809029|3.0|14|2|American (Traditional) /// Barbeque|3.31
MMgjU4K0D9RLsb7BWEic4g|Domino's Pizza|Charlotte|NC|35.117183|-80.857545|3.5|8|2|Sandwiches /// Pizza /// Chicken Wings|3.25
PVooCeYIrp9E2rtrL4R98g|Kopper Kettle Restaurant|Pineville|NC|35.114191|-80.912923|4.5|17|1|American (Traditional)|4.39
WqPjIMFcT9RTMUumaCvGsw|Corner Cafe & Catering|Pineville|NC|35.1118189|-80.915583|4.5|9|1|Breakfast & Brunch /// Cafes|4.33
D6sriF-ak-e5D_MTsPc3wg|Arby's|Pineville|NC|35.0912601|-80.8857292|2.5|4|1|Fast Food|2.67
5p3Tqyp19UowO0-dAFvxMw|China Buffet|Pineville|NC|35.08442|-80.884608|3.0|28|2|Buffets /// Chinese|2.82
T1jYZFB_7cqdhuvzpxfFWQ|I Hop|Pineville|NC|35.085568|-80.884822|3.0|17|1||3.12
bpyWgtzGf-PiRsIUso8KKw|El Vallarta|Pineville|NC|35.084897|-80.887685|3.5|3|2|Mexican|3.67
Zm9uQ4SYpZzUb3epDMeb7A|China Express Chinese Restaurant|Pineville|NC|35.082645|-80.885621|3.5|12|1|Chinese|3.55
LT0AgHTpDifuHSXgyLmJwg|Green's Lunch|Charlotte|NC|35.228193|-80.846592|3.5|39|1|Hot Dogs|3.49
USdRzNk14UdjZWFgBJb0wA|McNinch House Restaurant|Charlotte|NC|35.231684|-80.8396379|4.0|34|4|American (New) /// Southern /// French|4.03
ePP0Eqz8JKSbtdt2phiB4A|Alexander Michael's|Charlotte|NC|35.23361|-80.840783|4.5|212|2|Cajun/Creole /// American (Traditional) /// Bars /// Pubs /// Nightlife|4.29
ASwN3Ih0Eh1oH0npLbzVjA|Showmars|Charlotte|NC|35.2263469|-80.845804|3.5|20|1|Greek /// American (Traditional) /// Mediterranean|3.31
Lt9o2RmacVY2L-IWLA8uTg|Morton's The Steakhouse|Charlotte|NC|35.2286502258|-80.845006058|4.0|69|4|American (Traditional) /// Steakhouses|3.91
gpCtDCSXIoQx70cq9itfNA|Matt's Chicago Dog|Charlotte|NC|35.2240131|-80.8464728|4.0|54|1|Burgers /// Hot Dogs /// Sandwiches|4.09
-6JY1T0w4XETux5kGOj84g|Fox and Hound Smokehouse & Tavern|Charlotte|NC|35.228985|-80.839671|3.0|44|2|BarsAmerican (Traditional) /// Sports Bars /// Nightlife|3.05
WuCcv_Dyd_1B_1-4jwK7sQ|Rí Rá Irish Pub|Charlotte|NC|35.227987|-80.8414487|3.5|196|2|Pubs /// Irish /// Nightlife /// Bars|3.47
rT-iPtIXMKj3dTcl87lbOw|Soho Bistro|Charlotte|NC|35.2274789984|-80.8404318988|4.0|97|2|Chinese|3.82
vIXUw1cLG84-m8LzOg3f-w|Champions|Charlotte|NC|35.2279912|-80.843388|2.5|30|2|Burgers /// BarsSports Bars /// Nightlife|2.34
6eOtk-hsb6uz_5FTsb4tkA|The Sandwich Club|Charlotte|NC|35.2310911|-80.8381685|3.5|5|1|Delis|3.4
4glD2-evDFddHjQaEVpCPQ|Sushiya Japan|Charlotte|NC|35.0952753|-80.7791381|4.0|34|2|Sushi Bars /// Japanese|4.22
U_RvpPJNn24oWJo07x2j7w|City Tavern|Charlotte|NC|35.2284099|-80.8426239|2.5|7|2|Seafood|2.6
ym9QwkmB5ZKTyj7q5huTDw|Rock Bottom Restaurant & Brewery|Charlotte|NC|35.2302318|-80.8394131|3.5|210|2|Bars /// American (Traditional) /// Pubs /// Nightlife /// American (New)|3.42
OkPX0a9PUrhr6oNgE_FB_w|Burger King|Charlotte|NC|35.2244979|-80.84104|2.5|3|1|Burgers|2.5
QMX1ssofSveU3qhVAKLnXA|Fujiyama|Charlotte|NC|35.22533|-80.8461559|3.5|10|2|Seafood|3.64
XzhsJecsCYj-Wc32zOWqmg|Simmons Restaurant|Charlotte|NC|35.2340477|-80.841786|3.5|14|1|Southern|3.64
9fxTX1uyyYF4ugx68AG2sg|Presto Bar & Grill|Charlotte|NC|35.230158|-80.8473|3.0|30|2|American (New) /// Southern|2.79
utyqO_IVBAN8ULZmi52XaA|China King|Charlotte|NC|35.225825|-80.846495|3.0|5|1|Chinese|3.0
9XKIFRBT-UTglX3wBGPAAA|Bojangles|Charlotte|NC|35.2244979|-80.84104|3.5|7|1|Southern|3.5
df7cda6f5lMADGnoVHd8pg|Ratcliffe On The Green|Charlotte|NC|35.2240131|-80.8464728|4.0|18|2|American (New)|3.75
Heon0PS3J4RGmMa-VflCuA|Salsarita's Fresh Cantina|Charlotte|NC|35.2265794|-80.8428142|4.0|25|1|Fast Food /// Mexican|3.95
-Am2JVkb7nwvBAUwSugG0A|Monticello Restaurant|Charlotte|NC|35.2288472|-80.8412724|3.5|14|2|Breakfast & Brunch /// American (New) /// Southern|3.58
mpDxBBGywUE6GRRKja3sBA|Mert's Heart & Soul|Charlotte|NC|35.2273178|-80.8401304|3.5|582|2|Soul Food /// Southern|3.77
onv6-u283dEMVkFeAixYtw|Brevard Court Sundries|Charlotte|NC|35.22586|-80.846935|3.0|3|2|American (Traditional)|3.0
6ICGve6UyGPuLaGrKQBVuw|Jersey Mike's Subs|Charlotte|NC|35.226995|-80.844191|4.0|16|1|Delis /// Fast Food /// Sandwiches|4.19
NTfUFk8GyOLL1uPbEO-pVg|Mimosa Grill|Charlotte|NC|35.224456|-80.84547|4.0|277|2|American (New) /// Southern|3.88
_CFgU43jk6pX1cm_Nc1vHw|Arthurs's At Wachovia|Charlotte|NC|35.223805|-80.844616|4.0|4|1||3.75
e8kqqWU9247Nn5VAF5sDkQ|Fuel Pizza Cafe|Charlotte|NC|35.227822|-80.8411478|3.0|37|1|Pizza|2.85
SjsguOTm7kQ_B3QcfHH-3A|Showmars Government Center|Charlotte|NC|35.2216474|-80.8393449|3.5|4|1|American (Traditional)|3.5
z24h6ZYnZiWjlDTuLXG9jw|Luce Restaurant & Bar|Charlotte|NC|35.227822|-80.8411478|4.0|127|3|Italian|4.28
WYnveDiSEXLCeNkLZrXibQ|Phil's Deli New York Deli & Tavern|Charlotte|NC|35.2278131|-80.8414916|3.0|12|1|Bars /// Food /// Beer, Wine & Spirits /// Delis /// Nightlife /// Sports Bars|3.09
EwuvZCcVHkICgTbqCEjikA|Hartigan's Irish Pub|Charlotte|NC|35.2283983|-80.8547192|3.0|20|2|Pubs /// Bars /// American (Traditional) /// Nightlife|3.06
6SxAOEXHzNjWQMQ9Nnos3A|Phil's Tavern|Charlotte|NC|35.2278131|-80.8414916|2.5|23|2|Dive Bars /// Bars /// Nightlife /// Delis|2.55
kAid56AY_laxGYslMdsYJw|Brixx Wood Fired Pizza|Charlotte|NC|35.2274621|-80.8388937|3.5|99|2|Pizza|3.67
CChwRoYVXA3QZulS8a6xOQ|The Capital Grille|Charlotte|NC|35.2283137726|-80.8419989013|4.5|224|3|Bars /// Seafood /// Wine Bars /// Nightlife /// Steakhouses|4.36
T998Ez8h8CeZg1eNVbG77w|Graduate Food & Pub|Charlotte|NC|35.2275943|-80.8440182|3.5|4|N/A|Bars /// American (Traditional) /// Nightlife|3.25
t5l-H2KdY4MQgLDMENz9WQ|Stool Pigeons Coop & Grill|Charlotte|NC|35.2292799|-80.8424708|3.5|28|2|Bars /// American (Traditional) /// Pubs /// Nightlife /// Sports Bars|3.24
C9CF7p53Y0L5ErKRhhFhng|Savannah Red|Charlotte|NC|35.2279912|-80.843388|4.0|37|3|Soul Food /// American (New)|3.94
OOPBFViU0cl_GryJOEEUcg|Frankie's Italian Grille|Charlotte|NC|35.214505|-80.84581|3.5|7|2|Italian|3.57
-R7uChoaVzwNvPNMT1gOuw|Chicks Restaurant|Charlotte|NC|35.22533|-80.8461559|3.5|6|1|American (Traditional)|3.43
R6bBcQaHFHHpndTzMEHjXA|Ruby Tuesday Restaurant|Charlotte|NC|35.153816|-80.8249249|4.0|6|2|Burgers /// American (Traditional)|3.43
nkNdTqpv1m5GBKx8xrpluw|Arthur's At Belk|Charlotte|NC|35.153939|-80.8317551|4.5|29|1|Burgers /// Sandwiches|4.35
LUylwiKNsS7_iumytRgAmw|Bruegger's Bagels|Charlotte|NC|35.176106|-80.799651|3.0|22|1|Food /// Sandwiches /// Bagels /// Breakfast & Brunch|2.75
TLrX4FECQDFz-E45TI_9ow|LaVecchia's Seafood Grille|Charlotte|NC|35.227822|-80.8411478|3.5|44|3|Seafood|3.34
e5J3s-xxs1S6PPHJhldBEA|Cosmos Cafe|Charlotte|NC|35.2278411|-80.8394745|3.0|60|2|Bars /// Sushi Bars /// Nightlife /// Lounges /// American (New)|2.98
DjnNu1sWHEJpNBnW7CSdzA|Quiznos Sub|Charlotte|NC|35.22533|-80.8461559|2.5|3|N/A|Sandwiches|2.33
e2K0YQel5Fth0_vur2dN8w|Pizzeria Uno|Charlotte|NC|35.2246161|-80.8464246|2.0|9|2|Pizza|2.0
qqVmZ3H7j06pcJFaSA4pcg|Tic Toc Diner & Catering|Charlotte|NC|35.230441|-80.838086|4.5|12|1|Food /// Coffee & Tea /// Cafes /// Diners|4.27
4-B5ou1FbGVjVEQd3FAoIA|Sub One Hoagie House|Charlotte|NC|35.2340477|-80.841786|4.5|27|1|Sandwiches|4.26
Ak6ThDexfSFwoajgOpio8g|Reid's Fine Foods|Charlotte|NC|35.2281675|-80.8381937|4.0|8|2|Food /// Specialty Food /// Grocery /// Southern|3.88
eEMw81tZOYgW2xRX7o7W4g|Sonoma Bistro|Charlotte|NC|35.22777|-80.844182|3.5|8|3|American (New)|3.5
WN-cvQpxRoqkcAg50fJaPw|China Queen Buffett|Charlotte|NC|35.2284099|-80.8426239|2.0|3|1|Chinese|2.0
PowgfhnMrRKscqecHZdLzQ|Latorre's Restaurant|Charlotte|NC|35.2286689|-80.84241|4.0|10|2|Latin American /// Nightlife /// Dance Clubs|3.67
376PDtBpGi74Os08TvCkhg|French Quarter|Charlotte|NC|35.225996|-80.847022|3.5|51|2|French|3.33
G5dIek0rXPTHlqlJpCNmpw|Aquavina|Charlotte|NC|35.2240131|-80.8464728|3.0|22|4|American (New)|2.61
biNr0NdUU_dPXgWEhGJNZg|Wendy's|Charlotte|NC|35.229829|-80.9236452|1.5|4|N/A|Burgers /// Fast Food|1.33
v96eOvQGYHukDu_UWqNl4A|Gardenia Restaurant|Charlotte|NC|35.239174|-80.886314|4.0|15|1|American (Traditional) /// Southern|4.08
-dOhouYkZyKQnV45tJ7tKQ|Bellacino's Pizza and Grinders|Charlotte|NC|35.145665|-80.9303651|2.5|4|2|Pizza /// Sandwiches|3.0
ePogmFFQkAy68Ne0VVUGBg|Chili's Grill & Bar|Charlotte|NC|35.2326781|-80.8460822|2.0|5|2|BarsNightlife /// Tex-Mex|2.2
b856Q36EWKbwbm_XdJER8Q|Charlotte Cafe|Charlotte|NC|35.0952753|-80.7791381|3.0|23|2|Breakfast & Brunch /// American (Traditional) /// Southern|2.88
wpFOZbONc7qUYz6YmBfKuQ|Sonny's BBQ|Charlotte|NC|35.1629379|-80.8865749|3.5|54|2|American (New) /// Barbeque|3.35
eaqJQP6bp7rQJQt5KqfvxQ|Blue Restaurant & Bar|Charlotte|NC|35.227392|-80.840592|3.5|148|3|Wine Bars /// Bars /// Mediterranean /// Nightlife|3.59
hBscDTusN57Ai0SnkQK8Sg|Fujo|Charlotte|NC|35.223866|-80.844683|3.5|83|2|Asian Fusion /// Sushi Bars|3.53
d4t1qlm-mjhBmDUdboq5Uw|Arby's|Charlotte|NC|35.2126019|-80.833598|2.5|5|N/A|Burgers|2.6
CDH2dyRcJUDPM1xj4AD0lQ|Austin's Caribbean Cuisine|Charlotte|NC|35.211879|-80.833826|4.0|21|2|Caribbean|3.85
JgGpBGMAb1Nc2Z5jVIwZMA|Emperor Chinese Restaurant|Charlotte|NC|35.2120931|-80.8337738|2.0|18|1|Chinese|2.0
L9D9xHVgCo71ZoO1ZBGOsQ|Adams 7th Street Market|Charlotte|NC|35.216101|-80.822107|4.0|14|1|Delis|4.14
uDoTFFud2mXE3VT1Jt9L5A|The Melting Pot|Charlotte|NC|35.206798|-80.8351239|4.5|77|3|Fondue|4.43
FRYCe6Yc0rPzzloSWSsl1g|Art's Barbecue & Deli|Charlotte|NC|35.213685|-80.844951|3.5|20|1|Barbeque|3.25
MQnNtW1lHS-eid3QNUoUIw|Mama Ricotta's|Charlotte|NC|35.2094947|-80.8355125|4.0|228|2|Italian|4.02
n2MTry6EWZKwDxxm9-povQ|Sub Station II|Charlotte|NC|35.2132244|-80.8182756|4.0|13|1|Sandwiches|4.08
nuCgH96Tfe6CFXznvmKdhA|Maharani Indian Cuisine|Charlotte|NC|35.2066447335|-80.8355569839|3.0|79|2|Pakistani /// Indian|3.04
MMNBgMQCdwyVoNaHg0h_QA|Cuisine Malaya|Charlotte|NC|35.2154777|-80.8285213|4.0|148|2|Vegetarian /// Sushi Bars /// Asian Fusion|3.79
KT9EiMOGpAgFBwVG4GakNg|Wok Express Chinese Food|Charlotte|NC|35.2094947|-80.8355125|3.5|6|1|Chinese|3.33
c9D0yUos-jGOZaUv7SgCFw|Jersey Mike's Subs|Charlotte|NC|35.2123711|-80.8171636|3.0|16|1|Delis /// Fast Food /// Sandwiches|3.07
oYo5e7TUAYGRdx_0rjohww|Red Sea Restaurant & Bar|Charlotte|NC|35.2156538582|-80.8282980344|4.0|33|2|Ethiopian|3.9
l3mzaesyc90rxXt2d4HpTg|Papa John's Pizza|Charlotte|NC|35.2123823|-80.8275676|2.5|14|2|Pizza|2.71
8PsQqhrAH5uqJ7HODOmXYg|Showmars Restaurant|Charlotte|NC|35.212005|-80.817991|3.5|20|1|Greek /// Breakfast & Brunch /// American (Traditional)|3.32
cibtubYc6gd8T6Y-nPPByw|Ho Ho Cherry House|Charlotte|NC|35.2123711|-80.8171636|3.5|72|1|Chinese|3.39
nhPdxY-jbf-XVQ6Hq6qJPw|Snoop's Grill|Charlotte|NC|35.216323|-80.821777|3.5|15|1|Food /// Ice Cream & Frozen Yogurt /// American (Traditional)|3.86
G3EsKzy3i-CvrEDjZzTV0g|Fortune Cookie|Charlotte|NC|35.215975|-80.828428|3.5|38|1|Chinese|3.68
TwwD5FQSe0vk1Ecp89HjEw|Carpe Diem|Charlotte|NC|35.2140739|-80.826589|4.5|120|3|American (New)|4.31
jTGQUWGIVvL-aY03C5BEmw|Cajun Queen|Charlotte|NC|35.2145334|-80.8211257|4.0|314|2|Nightlife /// Jazz & Blues /// Cajun/Creole /// Arts & Entertainment|3.93
YbqNbrnOEk2T0qIBbTivuQ|Chicken Box Cafe|Charlotte|NC|35.2544169|-80.80088|4.0|50|1|Soul Food /// Southern|4.0
CE6TWiZ1hraCilyXIfxu4w|The Village|Charlotte|NC|35.2612535|-80.8187512|3.5|4|1|Breakfast & Brunch /// American (Traditional)|3.25
sXUMme0o3rS14edjipVN0w|Orient Express|Charlotte|NC|35.261082|-80.819237|3.5|3|1|American (Traditional)|3.33
FjSYyID6pInYVsG-vADNzg|Tatsis Restaurant|Charlotte|NC|35.2505974|-80.8270781|3.5|3|N/A|American (Traditional)|3.67
X7VdashktoAExx5ksEBLXQ|Bodrick's Bar-B-Q Rib Tips|Charlotte|NC|35.2687693|-80.8378516|3.5|9|1|Barbeque|3.33
xLWe6cylMsYl_TtmC9wlXA|Burger King|Charlotte|NC|35.254958|-80.802188|2.0|6|1|Burgers|2.17
nm6fSZhNrxbf8ZePK_X4fA|Fish & Chicken Corner|Charlotte|NC|35.253615|-80.804725|2.0|3|1||2.0
OigTHfCur-D8Ne-bV1ngOg|Ranch House|Charlotte|NC|35.234463|-80.933905|3.5|11|3|Steakhouses|3.4
rpq5pRzrVPXt9wKm17LV7Q|Yorkmont Cafe|Charlotte|NC|35.1902768|-80.9304829|3.0|16|1|American (New)|2.71
X-uPUUV7xPiKivsQzJD-wg|Burger King|Charlotte|NC|35.2235173|-80.9441649|1.5|23|1|Burgers /// Fast Food|1.57
MCFxbw9hQYejyvg59T44TA|The World Famous Open Kitchen|Charlotte|NC|35.229312|-80.863368|2.5|74|2|Italian|2.52
z2uFdzUyJniU4yysFJvSrQ|Floyd's Restaurant 1|Charlotte|NC|35.224855|-80.8961759|2.0|3|1|Soul Food|2.0
Uo2KWGChc_CBl6XsIvQVlg|Taco Bell|Charlotte|NC|35.242165|-80.888954|4.0|4|1|Fast Food /// Mexican /// Tex-Mex|3.75
q52H04woL1Oy1CVrUQu3bg|McDonald's|Charlotte|NC|35.238401|-80.884618|2.0|5|1|Burgers /// Fast Food|2.2
xopQn_MCE8bSBOyhsj6pVw|Pizza Hut|Charlotte|NC|35.2440597|-80.8919965|1.5|13|2|Italian /// Pizza /// Chicken Wings|1.33
xwQZW0571-QzEpQ4OjcC5g|Showmars|Charlotte|NC|35.236858|-80.882603|4.0|6|2|American (New) /// Sandwiches|3.83
URkv8wB2g6peiTiEaVY0Lg|Chicken King|Charlotte|NC|35.210945|-80.906475|3.5|3|1||3.67
P4r-LsB1ldgvlgli40Yu-Q|McDonald's|Charlotte|NC|35.228855|-80.923791|2.0|17|1|Burgers /// Fast Food|1.81
crKd3Kf3YYP8znwoMvcA-g|Niko's Grill|Charlotte|NC|35.221112|-80.920249|3.5|12|1|Greek|3.27
tw3wtf5ou5TcuIvidn3cOQ|Carolina Family Restaurant|Charlotte|NC|35.228524|-80.914573|4.0|15|1|Diners|4.07
M89wkxqAcXuVMtWh91BIjg|Mr G's|Charlotte|NC|35.2137529|-80.927661|4.0|17|1|Greek /// Barbeque|3.81
giv6uBI98vnyB3rVi0mM6w|Church's Chicken|Charlotte|NC|35.224182|-80.898492|2.5|4|2|Chicken Wings|2.33
diPvh48CJsNW0hsf9981ZA|Beauregards|Charlotte|NC|35.24309|-80.889326|2.5|15|2|Italian /// American (New)|2.62
1AXQja1QV47FGU0Jp0CSxw|Bojangles Restaurant|Charlotte|NC|35.2289648|-80.9259185|3.5|14|1|Fast Food|3.33
xP-6TN10JA_7C6-V1-JOEQ|Waffle House|Charlotte|NC|35.2348251|-80.920439|3.5|20|1|Breakfast & Brunch|3.19
6Re0uCzZeFxVUo8R9eqqXw|Wendy's|Charlotte|NC|35.2461023|-80.8932396|1.0|4|2|Burgers /// Fast Food|1.0
cpxwd_iFG3Oh1LUMJn0rOQ|Bar-B-Q King|Charlotte|NC|35.2244894|-80.8891254|3.5|90|1|Barbeque|3.54
rKe_bNOK1VlSbO-A6m0gvw|Chicken King Restaurant|Charlotte|NC|35.2568915|-80.8967481|1.5|3|1|American (Traditional)|1.67
DNr2McGXQLleQkJ0zaCBHQ|Cicis Pizza|Charlotte|NC|35.0901902|-80.8689902|3.0|5|1|Pizza|2.75
4kM-mP7z1nP015R2Tlz1Tw|McDonald's|Charlotte|NC|35.1497403164|-80.8333414793|2.5|22|1|Burgers /// Fast Food|2.81
wtUaFgHGHnopdYh5m-a25Q|Burger King|Charlotte|NC|35.148994656|-80.8300101757|2.0|9|1|Burgers|2.22
ZNeCNP1DZ6hRIpT0q-p6Kg|Harper's ToGoGo|Charlotte|NC|35.148191|-80.831604|4.0|3|2|American (Traditional)|3.5
hIQRiE3UsYH7UsrsDwJwLA|Harper's Restaurant|Charlotte|NC|35.148108|-80.8318029|3.0|113|2|Breakfast & Brunch /// American (Traditional)|3.19
ON-DoD4En7AdUIXVhTG5hg|Nick's Cafe|Charlotte|NC|35.149547|-80.836587|3.5|5|1|American (Traditional)|3.6
WkD7OrSIHLzgOQo9wQHu-A|Rusty's Deli & Grille|Charlotte|NC|35.1169659301|-80.8575681073|4.0|58|1|Delis /// American (Traditional) /// Sandwiches|4.11
CxGK5_GoIhG9798zYPsvfA|Monterrey|Charlotte|NC|35.089838|-80.868412|3.5|45|1|Mexican|3.39
IKUVWL75eSoC71G2fBphmA|Taipei South|Charlotte|NC|35.0929099|-80.8592146|4.0|50|1|Taiwanese /// Chinese|3.92
Y_OeiGhTm6ZEfZ1UQgM_wA|Musashi Japanese Restaurant|Charlotte|NC|35.0922425|-80.8589524|4.0|109|2|Japanese|4.09
kv-luwyaJYF3yCk2__-27g|Burger King Restaurant|Charlotte|NC|35.055205|-80.8473547|3.5|3|1|Burgers|2.5
4CPrhBc4Ado90fj7PG6jrA|P F Chang's|Charlotte|NC|35.146916|-80.827256|3.0|103|2|Gluten-Free /// Asian Fusion /// Chinese|3.0
1gKBusJMk66ypwEKF0vOAA|Palm Restaurant|Charlotte|NC|35.146814|-80.827789|3.5|89|3|Seafood /// Steakhouses|3.71
s-cFWOk9LXXZCrm4lKpjEg|Baoding|Charlotte|NC|35.1473609|-80.833041|4.0|91|2|Chinese|3.74
UzMMpUFwJhwUkHOyeXeWsQ|Original Pancake House|Charlotte|NC|35.1483931203|-80.8334164489|4.0|126|2|Breakfast & Brunch /// American (Traditional)|4.03
KLYI39LFvsPzS_2-j9qgIA|Showmars Emerywood|Charlotte|NC|35.157022|-80.875422|3.0|11|1|American (New)|3.0
3uhvCZnMzRcV7Cg-BDLkfA|Shanghai Restaurant|Charlotte|NC|35.117274|-80.856801|4.0|3|2|Chinese|4.0
BOp3jcpYy31M85H1DLnEEw|Upstream|Charlotte|NC|35.145671|-80.825569|4.0|141|3|Seafood /// Sushi Bars|3.86
Lw-01HQDswygHvAZfwkpxA|Showmars At Park Cedar|Charlotte|NC|35.093967|-80.865522|4.5|16|1|Greek /// American (Traditional) /// Fast Food|4.4
AvVRPaKoiYl1lrP8Voi0Fw|Papa John's Pizza|Charlotte|NC|35.170856|-80.745702|3.5|9|2|Pizza|3.44
UFvogJEUiLSJwyx2LSz2uQ|Kabob House|Charlotte|NC|35.172028|-80.746801|2.5|13|2|Bars /// Persian/Iranian /// Middle Eastern /// Nightlife /// Hookah Bars|2.91
90ZdW5Hq-QHKFxLsO3T5FA|Island Grocery|Charlotte|NC|35.2039919|-80.7462014|4.0|12|1|Food /// Soul Food /// Grocery /// Caribbean|3.83
dYW2bONI4ctcpc7d-Wk9Vw|McDonald's|Charlotte|NC|35.183472|-80.756938|2.5|3|N/A|Fast Food|2.5
RT-0cJb_8-WYhRuCfKxDjw|China Jade|Charlotte|NC|35.2029012|-80.7531859|2.5|6|2|Chinese|2.33
KQqkkg5jaxIbdMIG4MJCIw|Sunrise Restaurant|Charlotte|NC|35.202473|-80.73581|4.0|28|1|Breakfast & Brunch|3.92
AL259yRTSk5jQp6C4tjSiA|Don Pedro Mexican Restaurant|Charlotte|NC|35.187819|-80.757383|4.0|14|1|Mexican|4.27
rByWCBoFuDMUWDM92vOBwg|McDonald's|Charlotte|NC|35.2033925|-80.7380972|1.5|5|1|Burgers /// Fast Food|1.75
o9aeTDq7cOkqv_zzPPIMqw|Wendy's|Charlotte|NC|35.1796815|-80.7536019|2.0|3|N/A|Burgers /// Fast Food|2.0
3IDt1SaDYwo6QKKV7gsuyQ|Pizza Hut|Charlotte|NC|35.2026917|-80.740249|1.5|4|1|Italian /// Pizza /// Chicken Wings|1.5
dvRLvL3naAkkQtlTz0iI-Q|Bojangles' Famous Chicken 'n Biscuits|Charlotte|NC|35.184415|-80.7563629|2.5|4|N/A|Fast Food /// Chicken Wings|2.5
Lom8K4ZK5LIlRe2ZO90s9w|Chin Chin|Charlotte|NC|35.201622|-80.736859|2.5|14|1|Chinese|2.5
CESMPxEWnj42f4nTXV3_yw|Ted's Restaurant|Charlotte|NC|35.152222|-80.745487|3.5|20|1|American (Traditional)|3.74
F-e-sWfVd3eCYll3BP1QFA|Flying Saucer Draught Emporium|Charlotte|NC|35.3166944319|-80.7405517995|4.0|166|2|Pubs /// Bars /// American (Traditional) /// Nightlife|4.01
-s-OW4Kr9YY3SBmRdpgFdQ|Liberty East Restaurant|Charlotte|NC|35.188469|-80.761267|3.0|18|1|Breakfast & Brunch|3.18
2mmxmtwEli9CycpLcVpZgw|Wok Bo Chinese Restaurant|Charlotte|NC|35.270702|-80.937229|2.0|8|1|Chinese|1.88
hS1ShVIy8qLrRv9VXFFcww|Hardee's|Charlotte|NC|35.243569|-80.938286|3.0|4|1|Burgers /// Fast Food /// Hot Dogs|3.0
p_HFt0I92MHDNPWvdtyEBA|Miguel's Restaurants|Charlotte|NC|35.242044|-80.939773|4.0|133|1|Mexican|4.15
R2Ej1vlJyZ__BOLF1uMqpw|Little Rock Deli|Charlotte|NC|35.2431709|-80.937398|3.0|4|1||3.67
z4KtKRuuwU6eJAI68ChE-w|Papa John's Pizza|Charlotte|NC|35.2730688|-80.935875|3.0|6|2|Pizza|2.8
KpJeQaB0ca6k1-Wdduokqw|Showmars Restaurant|Charlotte|NC|35.244848|-80.9379979|3.0|21|1|Fast Food|3.1
QfkktmltWkPW4yZ87198LQ|Hop Feng Kitchen|Charlotte|NC|35.2461067|-80.9381321|3.5|7|1||3.33
0sbPpUIyTpcx90bLRsVx0w|Shuffletown Drive-In|Charlotte|NC|35.321649|-80.952888|4.5|20|1|American (Traditional)|4.25
oDEaIbq68RkKu2z_kLeMdw|Chinatown|Charlotte|NC|35.319499|-80.952736|2.0|7|1|Chinese|2.0
mD17cvqdGtahSk6hdSCYoA|Bojangles'famous Chicken'n Biscuits|Charlotte|NC|35.236328|-80.858393|2.5|8|1||2.57
mh1le9QGMrZLohAjfheJJg|Bojangles|Charlotte|NC|35.3055364|-80.8549492|2.5|8|N/A|Fast Food|2.17
gERW5IQPZyPz7TQvKus1mg|McDonald's|Charlotte|NC|35.269186|-80.853644|1.5|3|1|Burgers /// Fast Food|1.0
31IcDxg3P4P2kCjZ3OLCNQ|Tops China Restaurant|Charlotte|NC|35.2644481|-80.8558779|3.5|3|1|Chinese|3.33
xgKc4T6TTY_fassEUHZStA|Pizza Hut|Charlotte|NC|35.3232661|-80.9462201|1.0|4|2|Italian /// Pizza /// Chicken Wings|1.0
ia2B5u7ljmbaiVC6UVLhmw|Domino's Pizza|Charlotte|NC|35.306149|-80.852686|2.0|5|2|Sandwiches /// Pizza /// Chicken Wings|1.75
SXvbOMPd7jNgTkY6pqMWGw|Tung's Chinese Restaurant|Charlotte|NC|35.3061142|-80.8601376|1.0|3|N/A|Chinese|1.0
7FZ9597M9LhHXGbBD-0VFg|Bubba's Barbecue|Charlotte|NC|35.3059579|-80.854211|3.0|51|2|Barbeque|3.18
xhg1i3DoJvvTSxtGZ4j5Gw|Niki's Food Shop|Charlotte|NC|35.264421|-80.853982|3.5|6|1|Sandwiches /// Salad|3.4
5WeccFfcgqpuHJiWegAclw|South 21 Family Restaurant|Charlotte|NC|35.286205|-80.905821|3.5|9|1|Burgers /// American (Traditional)|3.56
pZt38dlsMaoRzSh7-f3f0Q|Waffle House|Charlotte|NC|35.3058429|-80.851169|3.0|5|1|Burgers /// Fast Food|3.33
2iiCazdKZjFYy46FR8iySA|Circle G Restaurant|Charlotte|NC|35.2724109|-80.8898552|4.5|11|1|Southern|4.27
27cIh0prWEOO2anhGx2G8A|Stockyard Restaurant|Charlotte|NC|35.273464|-80.89172|4.5|8|1|Breakfast & Brunch /// American (Traditional)|4.63
va9aHf7SEIfKLnvOmeavIw|Niyoshi II Japanese Express Restaurant|Charlotte|NC|35.325859|-80.9464|3.0|11|1|Japanese|3.13
687wG68J1XicP5YzMqKqFQ|Denny's|Charlotte|NC|35.3075772865|-80.8511995545|3.0|16|2|Breakfast & Brunch /// American (Traditional)|3.29
jr8D3lu1S0-eRpIVxkKnMA|Pizza Hut|Charlotte|NC|35.146999|-80.80925|1.5|13|2|Italian /// Pizza /// Chicken Wings|1.55
Khv_fiHqB4JcMkzzz7yd7Q|Barrington's|Charlotte|NC|35.1469687|-80.8086157|4.0|76|3|American (New)|4.18
r-pBY6vR_Iu5XhPRvPnquw|Hickory Tavern|Charlotte|NC|35.053472|-80.7708|3.0|38|2|Nightlife /// Bars /// American (Traditional) /// Sports Bars|3.25
t719u5GZY0yPX4U7t5whrg|McAlister's Deli|Charlotte|NC|35.116099|-80.824258|3.5|7|1|Delis /// Sandwiches /// Salad|3.63
c2RzHxH4DQcH4A-a5FpidQ|Chuck E. Cheese's|Charlotte|NC|35.086145|-80.849974|2.5|11|2|Pizza|2.67
CnQpjJ37QT75YA_OAzqgDw|Bojangles'famous Chicken'n Biscuits|Charlotte|NC|35.0890219|-80.8676405|2.0|14|1||1.77
IbWfpebkP64zWgc9-ZVtZA|Bailey's Sports Grille|Charlotte|NC|35.0880289|-80.8633658|3.0|32|2|BarsAmerican (Traditional) /// Sports Bars /// Nightlife|3.0
i-tKO0n-1Tq6sTFUrhg9-Q|Wan Fu|Charlotte|NC|35.088596|-80.861458|4.0|87|2|Chinese|4.11
kCFGPmD5fP8YsmSTPjaCyw|HoneyBaked Ham|Charlotte|NC|35.086169|-80.849874|4.0|5|N/A|Food /// Specialty Food /// Delis /// Meat Shops /// Sandwiches|4.5
6-jlUgqp0Mv3PUzMGjrb0A|Clucker's Greek Cuisine|Charlotte|NC|35.2270869|-80.8431267|3.5|5|2|Greek /// Mediterranean|3.4
5pa2LaT37MOBBmUr36J-eQ|Trio|Charlotte|NC|35.088556|-80.857383|4.0|56|2|American (New)|3.65
pvaUE-Cmg6k37GQ-LluOLw|Waffle House|Charlotte|NC|35.0879653|-80.8584789|4.5|13|1|Burgers /// Fast Food|4.4
3IQSDaqbnqACADJWlXpRkA|Chick-fil-A|Charlotte|NC|35.0985242|-80.7831061|4.5|17|1|Fast Food|4.29
P0aKJw8rb0DKLaGottHEAw|Kabuto|Charlotte|NC|35.088069|-80.8512049|3.0|49|2|Sushi Bars /// Japanese|3.13
4zr5_OOjwTdOEE7d_181RA|Bombay Grille|Charlotte|NC|35.089035|-80.8670549|3.5|72|2|Indian|3.74
qam5QKFE2a8MQBkxznrr3w|The Great Wall Of China South|Charlotte|NC|35.08565|-80.847489|3.5|84|2|Chinese|3.33
DReLu6HuFOm4p-jYZpgQkw|Thai House At Tower Place|Charlotte|NC|35.089035|-80.8670549|4.0|95|2|Thai|3.75
gG7j-FWm_2VFf_lnH8dWOg|KFC|Charlotte|NC|35.0889|-80.8678|1.0|5|1|Fast Food /// Chicken Wings|1.0
ttsxQ4P_jEqKLxwkLUI8_w|Good Ol' Days|Charlotte|NC|35.096098|-80.785635|3.0|7|1|Breakfast & Brunch /// American (Traditional) /// Diners|2.86
i-cEO98lTS10WH30FyKvGA|Chili's Grill & Bar|Charlotte|NC|35.0880278|-80.859157|2.5|17|2|Nightlife /// Bars /// Tex-Mex|2.73
-9Zy-3vhvOtsY5u2taOfQQ|Park 51 Cafe|Charlotte|NC|35.0905079|-80.868095|3.5|21|1|American (Traditional)|3.4
QoCjVVy4--QNyVRkzQTCEg|Lotus II Chinese Cuisine|Charlotte|NC|35.1171312|-80.824652|2.5|18|1|Chinese|2.76
xLZilmaLXY0r-dBFaiLxww|Nakato Japanese Steakhouse|Charlotte|NC|35.0880289|-80.8633658|4.0|49|2|Steakhouses /// Asian Fusion /// Japanese|3.81
f9WqdqHuZtwg41HDLSKaPA|Bangkok Ocha|Charlotte|NC|35.086393|-80.848856|3.5|46|2|Thai|3.76
jm2VltGSjXCX6Da27Y-Ndw|Chi Thai|Charlotte|NC|35.096321|-80.78463|3.5|17|1|Thai|3.67
ukmUw9Lk6JjS6cndXlCj1A|Jack In the Box|Charlotte|NC|35.0872448|-80.8502616|3.0|4|1|Fast Food|3.33
NHIWIA3g7oLZ5gW1tpjf8w|Outback Steakhouse|Charlotte|NC|35.088117|-80.861651|3.0|39|2|Steakhouses|3.29
2kz1P9SlJNAndRkXk4bCDA|Salsa's Mexican Restaurant|Charlotte|NC|35.0854349|-80.847571|3.5|21|1|Mexican|3.68
bffCUYaQ4FejTfu_xFwjyQ|Showmars Restaurant|Charlotte|NC|35.2277864|-80.8428303|4.0|11|1|Greek|3.9
eMFD4FA8NVAlUAeBl4EVNw|Subway|Charlotte|NC|35.2277864|-80.8428303|3.5|3|1|Fast Food /// Sandwiches|3.5
rg1-6A-8SKXGh_p-Abbyxg|Zapata's Cantina Mexican Restaurant|Charlotte|NC|35.309226|-80.749288|3.0|69|2|Mexican|3.06
pabBnIObNHlmVkviQgnkGA|Papa John's Pizza|Charlotte|NC|35.3133839|-80.7431575|2.5|4|2|Pizza|2.5
ULvDCr7r9sMU1iSwgTHXsA|Bombay Cuisine|Charlotte|NC|35.303872|-80.749548|3.5|7|2|Pakistani /// Indian /// Buffets|3.63
fBX9zO0TYlI05G8Mw5xSBw|Jack In the Box|Charlotte|NC|35.32318|-80.732899|3.5|11|1|Fast Food|3.36
GNKcvMI0RyVQyEA4jNQXjQ|Ciro's Italian Restaurant|Charlotte|NC|35.309226|-80.749288|3.5|54|2|Italian|3.52
SgjcjIxsAlVkcrtLaLxtTg|Chili's Grill & Bar|Charlotte|NC|35.3087043|-80.7554721|4.0|17|2|Nightlife /// Bars /// Tex-Mex|3.88
JId-omv3reUpFcL0dhhegQ|Bojangles Famous Chicken N Biscuits'|Charlotte|NC|35.304516|-80.751164|4.0|20|1|Fast Food|3.89
UUs667cl2g2SjmWcOYgCVw|Stool Pigeons Coop & Grill|Charlotte|NC|35.317215|-80.739129|2.5|11|2|Bars /// American (Traditional) /// Chicken Wings /// Burgers /// Nightlife /// Sports Bars|2.36
E9s5A9n0KmPV764ldWu6iQ|Food Lion|Charlotte|NC|35.313822|-80.7467876|3.5|4|2|Food /// Delis /// Grocery|3.25
hlME5-P2CudNDCUSIX2cxQ|Showmars Restaurant|Charlotte|NC|35.300589|-80.752675|3.5|24|1|Greek /// Burgers /// Sandwiches|3.5
M8CC5_9vEvt1yOI2pnkvKA|Ninety's Ice Cream & Sandwiches|Charlotte|NC|35.310622|-80.749274|4.0|16|1|Food /// Ice Cream & Frozen Yogurt /// Sandwiches|3.77
CN6AB-R4OLsKxFhQ1Kk68g|Hilton Charlotte University|Charlotte|NC|35.3087682|-80.7506546|3.5|40|4|Hotels & TravelEvent Planning & Services /// Hotels|3.41
qC21Nl_OUfTr_xf8ZjzOcg|Qdoba Mexican Grill|Charlotte|NC|35.303872|-80.749548|4.0|22|1|Fast Food /// Mexican|4.0
zOY-W35waCcBWDmjX7_MFQ|Bruegger's Bagels|Charlotte|NC|35.312144|-80.745093|3.5|18|1|Food /// Sandwiches /// Bagels /// Breakfast & Brunch|3.56
qZ1bDtcercwUw4w7trpVjQ|TGI Friday's|Charlotte|NC|35.307846|-80.75423|2.0|46|2|Italian /// American (Traditional)|2.05
98hOHm56D0Boz2LCg0-irg|Applebee's|Charlotte|NC|35.3110039|-80.75229|2.0|14|2|Steakhouses /// Bars /// American (Traditional) /// Nightlife|2.23
P9aM91bY6XHOY9ZfaLUYqQ|Taco Bell|Charlotte|NC|35.31006|-80.75372|3.5|11|1|Fast Food /// Mexican /// Tex-Mex|3.25
KxJ5DRcSo83N-GW4f_gMQQ|Smokey Bones Bar & Fire Grill|Charlotte|NC|35.3073652|-80.7497543|2.5|27|2|American (Traditional) /// Barbeque|2.48
tuR6sBN9IwyLEg6KiuEXTQ|Jersey Mike's Subs|Charlotte|NC|35.312144|-80.745093|3.5|12|2|Delis /// Fast Food /// Sandwiches|3.4
1PSnPPFVfp03iPfJRPWWQw|Nakato Japanese Steakhouse|Charlotte|NC|35.3058802|-80.754177|4.0|79|2|Sushi Bars /// Japanese|3.79
6SWPWj74qF_pEVgDM3-IpA|Chick-fil-A|Charlotte|NC|35.3103539|-80.75235|4.0|21|1|Fast Food|3.94
rHl7fCXz78i89rEaflTPvw|Lotus Buffet|Charlotte|NC|35.3171014|-80.74022|3.0|26|1|Chinese|3.05
OaABTKQcUvaT3Bqagq8gtw|Burger King|Charlotte|NC|35.303485|-80.752121|3.0|3|1|Burgers|3.0
3xdV-7di_YD3MVqs3Pa7-g|Picasso's Sports Cafe|Charlotte|NC|35.303872|-80.749548|4.0|65|2|Bars /// Burgers /// NightlifeSports Bars /// Pizza|3.95
hvhogN-3cMny0Nrqbsjpkg|Romano's Macaroni Grill|Charlotte|NC|35.314615|-80.762724|2.5|58|2|Italian|2.54
7rsMIEq01gE12F7iRdzLEA|McAlister's Deli|Charlotte|NC|35.3404439|-80.7653197|3.5|21|1|Delis /// Sandwiches /// Salad|3.74
-f5xy4PY0DV-9FyIM6-M6A|Texas Ranch Steak House|Charlotte|NC|35.280474|-80.792964|3.0|9|2|Steakhouses|3.14
_naNO-mZQjTav4iLf5TFmA|Chicken King|Charlotte|NC|35.295969|-80.79768|3.5|4|1|Burgers /// Fast Food /// Greek|3.33
UvuUOiP0oIgJ2H_8J6h6Zg|Wing Zone|Charlotte|NC|35.3171014|-80.74022|2.0|18|2|Sandwiches /// Fast Food /// Chicken Wings|1.94
i3HfmM-evIOLpJ2wuTZVKA|LongHorn Steakhouse|Charlotte|NC|35.3175247|-80.778361|4.0|32|2|Steakhouses|3.8
RbUCjIvGtgPY_cT6MJYxmQ|Five Steps II|Charlotte|NC|35.1403547|-80.7391983|3.0|3|2|American (New)|3.0
xH9zGlw85wE3q5YJ5D230Q|Quiznos|Charlotte|NC|35.1389801|-80.7370526|2.0|3|N/A|Fast Food /// Sandwiches|2.0
n_t3HHkoR3TXomoBOcVZaQ|McDonald's|Charlotte|NC|35.138618|-80.738107|3.0|4|1|Burgers /// Fast Food|2.75
3LUpNAPfrbG3jOQgFGfquQ|Taco Bell|Charlotte|NC|35.1379372|-80.7353674|3.0|5|1||3.0
qib8Pu8_auDKPMBm8Ac89A|Wendy's|Charlotte|NC|35.140353|-80.736277|2.5|5|1|Burgers /// Fast Food|2.5
ZXl9KGsv-VEoDKCC_08j4A|Hungry Howie's Pizza|Charlotte|NC|35.1408432|-80.7378572|3.0|14|1|Pizza|2.93
UzbI1Da7X23bDLwPluj5Qg|Salsa's|Charlotte|NC|35.1389801|-80.7370526|3.5|11|N/A|Mexican|3.4
NKDeqe-I2dD1MAtumoIyYQ|Burger King 4763|Charlotte|NC|35.139767|-80.7362342|1.5|6|1|Burgers|1.43
O6fEzyH0fRP7r8IbSnCgoA|Best Wok|Charlotte|NC|35.140593|-80.7376132|4.5|27|1|Chinese|4.15
-2NCvK5807Nxs9GUb2Eo1g|Juliana Pizza Family Restaurant|Charlotte|NC|35.137534|-80.739321|3.5|19|1|Pizza|3.81
Ylef457BBvxuv7wq-20lkg|Yen's Chinese Restaurant|Charlotte|NC|35.147409|-80.745722|3.5|5|1|Chinese|3.6
Va65srVwxyWNuX2dwF4jEg|Subway|Charlotte|NC|35.094605|-81.005171|3.0|4|1|Fast Food /// Sandwiches|2.75
51Tvv-QOiFeEcELzDuO1fQ|China Town|Charlotte|NC|35.094605|-81.005171|3.5|15|1|Chinese|3.5
AzW6M1E6KcrTDpQ0DkRt9A|Chick-fil-A|Charlotte|NC|35.2265794|-80.8428142|4.5|27|1|Fast Food|4.36
iTjwgc3rHS5k3GptqIp2Uw|Johnny Burrito|Charlotte|NC|35.2254586|-80.8452366|4.0|55|1|Mexican /// Tex-Mex|4.21
rPQsep_POg0YATvt-6MEfg|Jumpin' Java|Fort Mill|SC|35.066659|-80.959564|3.5|12|2|Breakfast & Brunch /// Sandwiches|3.4
hcFlvyDQq-1izciN8bxCQA|China II|Fort Mill|SC|35.0591309|-80.9894419|3.5|6|1|Chinese|3.33
mhQweoH_CKOZGuVi2b9Rdg|Bojangles Restaurant|Fort Mill|SC|35.0604924|-80.9911291|3.0|5|1|Southern|2.8
pgJ-fy_EAKl5vI-uxV7ORQ|Papa John's Pizza|Fort Mill|SC|35.0315252095|-80.9676051604|2.0|5|2|Pizza|2.0
oP9AEoTeun7L-dPeSxJw_A|McDonald's|Fort Mill|SC|35.0603265|-80.9921999|2.0|10|1|Burgers /// Fast Food|1.73
5odPoosll36dti3xbSwuJA|McHale's|Fort Mill|SC|35.0603864|-80.996515|3.5|13|2|Bars /// American (Traditional) /// Nightlife|3.36
WswRGZEX-y1EBZ3pk6XmVA|Roasting Oven & Grill|Fort Mill|SC|35.0993019|-80.9337785|4.5|3|1||4.33
hGMY-HlQTFUCSmHPDobBUg|El Cancun Mexican Restaurant|Fort Mill|SC|35.093402|-80.934661|3.0|15|2|Mexican|3.07
7TRoAw7qD95cClWzRrDTuA|Jersey Mike's Subs|Fort Mill|SC|35.0615913|-80.9928264|4.0|5|1|Delis /// Fast Food /// Sandwiches|3.67
28YKigLZj0ooXDFVKw_qHA|Wendy's|Fort Mill|SC|35.0957541|-80.9360955|2.0|9|1|Burgers /// Fast Food|1.89
LwSNsn2k6v_Nb2dbhP3qsQ|De Marco's Italian Grill|Fort Mill|SC|35.0603957|-80.9932098|3.5|24|2|Pizza /// Italian|3.65
1UQpjv4QuD5l_ZT7O4p6Rw|El Maguey|Fort Mill|SC|35.0593126|-80.9894232|2.0|11|2|Mexican|2.3
Zc2IwSzGY63zkyhfNrr7HA|T-Bones On the Lake|Lake Wylie|SC|35.1100272|-81.0449197|2.0|82|2|Dive Bars /// Bars /// Steakhouses /// Nightlife|2.07
She6nAFoCwhUcfdeYWIgzA|Rey Azteca|Clover|SC|35.1097984|-81.0425005|4.0|20|2|Mexican|3.76
JwUE5GmEO-sH1FuwJgKBlQ|Pine Cone Restaurant|De Forest|WI|43.18405|-89.3229659|4.0|38|1|American (Traditional)|3.97
_L6sbh9zs7f4s1EM_niQcA|Casey's General Store|De Forest|WI|43.25312|-89.356495|5.0|3|N/A|Gas & Service Stations /// Food /// Automotive /// Convenience StoresPizza|5.0
uGykseHzyS5xAMWoN6YUqA|Deforest Family Restaurant|De Forest|WI|43.2521822|-89.353353|3.5|28|1|American (Traditional)|3.67
LRKJF43s9-3jG9Lgx4zODg|Culver's|De Forest|WI|43.2755625|-89.3658244|4.5|13|1|Food /// Ice Cream & Frozen Yogurt /// Fast Food|4.36
E6r76XG8u6qJCJuyAMVFrg|Pizza Hut|De Forest|WI|43.2393613|-89.342612|4.0|4|1|Italian /// Pizza /// Chicken Wings|4.0
RgDg-k9S5YD_BaxMckifkg|Chang Jiang Chinese Kitchen|De Forest|WI|43.2394189|-89.3424846|4.0|4|N/A|Chinese|3.75
S0VkwedfHhohKoeT9-lCBA|Jimmy John's|De Forest|WI|43.2407781|-89.3437025|2.0|3|1|Sandwiches|2.0
ve8TPUY6IgTsgB3ZHabl-Q|Landmark|De Forest|WI|43.247335|-89.34407|1.0|3|N/A|BarsNightlife /// Diners|1.0
rdAdANPNOcvUtoFgcaY9KA|Green Lantern Restaurant|Mc Farland|WI|43.0258026|-89.3063407|3.5|42|2|American (Traditional)|3.5
ZfIJYXEm6PSxmEc-11mbZQ|Culver's|Mc Farland|WI|43.0137642|-89.3021944|4.0|5|1|Food /// Ice Cream & Frozen Yogurt /// Fast Food|4.0
_wZTYYL7cutanzAnJUTGMA|Beach House Restaurant & Lounge|Mc Farland|WI|43.0177797|-89.3038349|3.5|39|2|Bars /// American (Traditional) /// Nightlife /// Lounges|3.38
zOc8lbjViUZajbY7M0aUCQ|Spartan Pizza|Mc Farland|WI|43.0141412|-89.2886604|4.0|13|1|Burgers /// Bars /// Pizza /// Nightlife|3.86
UgjVZTSOaYoEvws_lAP_Dw|Main Moon|Mc Farland|WI|43.0183968|-89.2990876|3.5|9|1|Chinese|3.63
SKLw05kEIlZcpTD5pqma8Q|Imperial Garden|Middleton|WI|43.090642|-89.485169|3.0|52|2|Chinese|3.19
77ESrCo7hQ96VpCWWdvoxg|Mi Cocina|Middleton|WI|43.091176|-89.487249|3.0|21|2|Mexican|3.05
KTqNU4plO23583DYAMGXYg|Domino's Pizza|Middleton|WI|43.0969955|-89.5008508|3.0|9|1|Sandwiches /// Pizza /// Chicken Wings|3.33
MKsb2VpLB-0UBODcInDsSw|China Wok Buffet|Middleton|WI|43.0965066|-89.501014|2.5|15|1|Chinese|2.69
ShEYKerTwb2LSORE5o_s7A|Prairie Cafe & Bakery|Middleton|WI|43.1072304|-89.4969553|3.5|42|1|Bakeries /// Food /// Breakfast & Brunch /// Coffee & Tea|3.61
HaBkx5PwvbBpQ2iNCgHnVQ|Paul's Neighborhood Bar|Middleton|WI|43.101459|-89.511049|3.5|14|1|Bars /// American (New) /// Nightlife|3.5
KW6HejC-67KSL9J8Cz1dSw|Chin's Asia Fresh|Middleton|WI|43.0753452677|-89.5284801808|3.0|39|2|Chinese|3.22
wl-7A4jC0f27MOEmW-XTbQ|Grand China Restaurant|Middleton|WI|43.1035561|-89.4864809|3.5|12|1|Chinese|3.64
suQyHycqv8nA7EualcUB3g|Dennys|Middleton|WI|43.0906288|-89.5240901|3.0|5|1|Diners|2.5
c5awCF5eu0ZkxUf_i94uPA|Bristled Boar Saloon & Grill|Middleton|WI|43.1033362|-89.4925824|3.5|21|1|Bars /// American (Traditional) /// Nightlife|3.39
uga5g16PncJOtY7Sc3A05w|McDonald's|Middleton|WI|43.0905898|-89.5250644|4.5|7|1|Burgers /// Fast Food|4.25
xbJ9tdGbcVJIUkNgHSCwZQ|Hody Bar & Grill|Middleton|WI|43.0961033|-89.5132252|2.0|17|1|Arts & Entertainment /// American (Traditional) /// Music Venues /// Bars /// Nightlife|2.27
koRLvzIl-4fCybOIdk56jA|Louisianne's|Middleton|WI|43.095616|-89.511021|4.0|69|3|Cajun/Creole /// Seafood|3.95
cruBFtsFaBuhX_I72uU8pA|Papa John's Pizza|Middleton|WI|43.0956809|-89.4945693|2.0|4|2|Pizza|1.33
X47o6R2rWiqGqvBtC7VS3Q|Three Sisters Old Town Inn|Middleton|WI|43.0999215|-89.5111795|3.5|32|1|Breakfast & Brunch|3.53
lN-5-YTsaJr_IByyA476iw|Middleton Sport Bowl|Middleton|WI|43.0966736|-89.4997544|3.5|13|1|Active Life /// Bowling|3.5
IEmqrFe96NOhU07TA0rZdw|Stamm House At Pheasant Branch|Middleton|WI|43.104086|-89.494781|2.0|7|2|American (Traditional)|2.14
KFJ1jBfFkRfyn3AoAUl3YQ|Hardee's|Middleton|WI|43.097013|-89.5165749|4.5|6|1|Burgers /// Fast Food|4.33
JRPrCy55SB366pvMEGy-Xg|Fitzgerald's|Middleton|WI|43.108671|-89.510812|3.5|17|2|Steakhouses|3.25
G1qUGBNYNS220jKlPAlFsA|The Village Green|Middleton|WI|43.095724|-89.5120419|4.0|49|1|Pubs /// Bars /// American (Traditional) /// Nightlife|4.07
6oDZ78JiSKjXVLcurCpnhw|Nitty Gritty Middleton|Middleton|WI|43.0844617|-89.5014542|3.0|24|2|Bars /// American (Traditional) /// Nightlife|3.09
kiAsweI4sOjDzGyz3Y_HsQ|Culver's|Middleton|WI|43.1062742|-89.5113122|4.5|17|1|Food /// Ice Cream & Frozen YogurtBurgers|4.33
q8fD82us6uuGufvI44NoAg|Vin Santo|Middleton|WI|43.0956058|-89.5108863|4.0|79|2|Italian|3.99
oc0rCahXOaJeHLzzDdSfyA|Soup Factory|Middleton|WI|43.0961286|-89.5136731|3.0|3|1||3.0
Nj0vQjUYjaa7qbvZlEr2jQ|Club Tavern & Grille|Middleton|WI|43.0968804|-89.4946898|2.5|31|2|Bars /// American (New) /// Nightlife|2.63
B0Vuwn6Hugc-0U5n31YBfg|C's Restaurant Bakery and Coffee Shop|Middleton|WI|43.102896|-89.48674|4.0|25|1|Bakeries /// Food /// American (Traditional)Donuts|4.09
BPftTf2ZNidSaeyyXcxhdg|Subway|Middleton|WI|43.103449|-89.487044|3.0|3|1|Fast Food /// Sandwiches|3.0
3zD6rxB92Mr0jb-LoYFFWw|Burger King|Sun Prairie|WI|43.1878972|-89.2271655|1.5|18|1|Burgers|1.33
hJPi219V-e99Kedk2cSbEA|Jimmy John's|Sun Prairie|WI|43.1982824|-89.2119398|3.5|3|1|Sandwiches|3.33
9wsv3WwH0HtwPvD8XCdT_g|Culver's Frozen Custard|Sun Prairie|WI|43.1782088|-89.2387305|4.0|7|1|Food /// Ice Cream & Frozen Yogurt /// Fast Food|4.0
b3HiA0pIJ-qIUfXwqIvAZQ|Anna's Pizzeria|Sun Prairie|WI|43.1778077|-89.2403448|4.5|17|2|Pizza|4.38
OC8AUJshLVimn_-P_INvJw|Pizza Pit|Sun Prairie|WI|43.1832772|-89.2185271|2.5|7|1|Sandwiches /// Pizza /// Chicken Wings|2.78
04h3nxtkDfaKsJhrKRHZ-Q|Taco Bell|Sun Prairie|WI|43.174555|-89.25008|1.5|8|1|Fast Food /// Mexican /// Tex-Mex|1.57
Y_hWal1CfHfSaMEfXcIumQ|Subway|Sun Prairie|WI|43.1784005|-89.2377158|3.5|3|1|Fast Food /// Sandwiches|3.33
ZXDlrA9Aqsda1WfQD3H6aw|Papa Murphy's Take and Bake Pizza|Sun Prairie|WI|43.1753564|-89.2482746|3.0|4|2|Pizza|3.0
2pmMehsVKnwhgWPSOxrkjA|Panda Garden|Sun Prairie|WI|43.1886488|-89.228567|3.5|14|1|Chinese|3.58
NDAxF0_RCZBQedVO_d5WnA|Chang Jiang|Sun Prairie|WI|43.1816362|-89.2294373|3.0|17|1|Chinese|3.33
eptljN50_4BpIwc2Op_A_A|Deli Roma|Sun Prairie|WI|43.1783069|-89.241085|4.0|21|1|Delis|4.42
Xp7OA8gz7zDgB3I54jyb4g|SIR Hobo's|Sun Prairie|WI|43.182445|-89.225628|3.0|24|1||3.09
5uxhIGZlJm9g_zfG_83z5Q|Peking Chinese Restaurant|Sun Prairie|WI|43.1753699|-89.2482376|2.5|3|N/A|Chinese|2.67
yV-eB-pQVeWE7W-WPC8BUg|Prairie Diner|Sun Prairie|WI|43.1881219|-89.230805|4.0|25|1|Diners|4.18
unMqU0OrlniCOKZIoQHb0A|KFC|Sun Prairie|WI|43.1866|-89.2315|1.0|5|N/A|Fast Food /// Chicken Wings|1.0
MlWXHxdbIODf9GUcvUTfGQ|Country Cafe|Sun Prairie|WI|43.1870224|-89.2309754|3.5|13|2|Breakfast & Brunch /// American (Traditional) /// Diners|3.67
RIsEPpt2jM7c_Ko_CyLwMw|Dairy Queen|Sun Prairie|WI|43.1823765|-89.2251875|3.5|5|1|Food /// Ice Cream & Frozen Yogurt /// Fast Food|3.5
zgxNUxS8eIyhkrXegDLtjQ|McGovern's  Enterprises|Sun Prairie|WI|43.1822015|-89.2275317|3.5|7|2|Burgers /// Steakhouses /// Sandwiches|3.38
O_Pu4mKGOqQVlmH07Zbnhg|The Rodeside Grill|Windsor|WI|43.193601|-89.339602|4.0|29|2|American (Traditional)|3.89
HGzdDbukK8RJEc623kLz5Q|A&W Restaurant|Windsor|WI|43.1955564|-89.3441762|3.5|14|1|Burgers /// Fast Food|3.75
oX6KamASYXnMIe5kpVhezw|Flaming Wok|Madison|WI|43.1206623|-89.3089837|3.5|31|1|Chinese|3.45
S4TWo9X6b3gU6uucj4JN3g|Laredo's|Madison|WI|43.1204129|-89.3146147|3.5|26|2|Mexican|3.41
xZwaUcrFMSY1O9dK2dAUpA|China Wok|Madison|WI|43.0945835|-89.3641631|3.5|22|1|Chinese|3.48
qQvpS262VPEHKZvM6j5uhQ|Callahan's Sports Pub|Madison|WI|43.124427|-89.324419|2.5|17|1|BarsAmerican (Traditional) /// Sports Bars /// Nightlife|2.5
XWDk-pLSbVE2Vvv9Z-zusQ|Burger King|Madison|WI|43.101439|-89.347232|1.5|18|1|Fast Food|1.41
1hBOR97oX5Xph3J8Tdob7w|Cheeseburger in Paradise|Middleton|WI|43.0907640772|-89.5292315087|2.5|41|2|Burgers /// American (Traditional)|2.33
ybkWtM1ZnT2ewuquj3A9KQ|Benvenuto's Italian Grill|Madison|WI|43.1288990362|-89.3600500521|3.0|32|2|Italian|3.09
zAsxPh3h9xMQnSDGl41kSg|Wilson's Bar|Madison|WI|43.093214|-89.350403|3.5|19|1|Bars /// Burgers /// Sandwiches /// Nightlife /// Sports Bars|3.57
YEGS2TuSk7TQ_F8fWsE9ag|Veterans of Foreign Wars Truax-Longmire Post 8483|Madison|WI|43.1623535|-89.3355507|4.0|3|1|American (Traditional)|4.0
lNE3gOMb724YPlZAA8WlXQ|Denny's|Madison|WI|43.1231549881|-89.3143174052|2.5|15|1|American (Traditional)|2.69
cpGv6ES2hzPCtCUQgipwXw|New Orleans Take-Out|Madison|WI|43.0984345318|-89.3644666672|4.0|52|1|Sandwiches /// Cajun/Creole /// Seafood|4.15
wPidHd5FxspPRgVqdEQ-Xw|Pedro's Mexican Restaurante|Madison|WI|43.1146165|-89.3254853|2.5|59|2|Mexican|2.48
9hf_gSaDn3cdLsE6vTsUfw|Happy Wok|Madison|WI|43.1470709|-89.287972|4.0|8|1|Chinese|4.0
yYIEKwgQUHJpySOcVdCAkg|Perkins Restaurant & Bakery|Madison|WI|43.1359|-89.2994502|3.0|15|2|Bakeries /// Food /// Breakfast & Brunch /// American (Traditional)|2.93
pSiRWeCqs7a1xvS9ycLoTQ|Chang Jiang|Madison|WI|43.1056341465|-89.2967010739|2.5|5|1|Chinese|3.0
QF14BFUVHRODxGNVflgm3A|Cracker Barrel Old Country Store|Madison|WI|43.1295964|-89.2934283|3.0|23|1|Breakfast & Brunch /// American (Traditional) /// Southern|2.7
11yg-JMNCFowyIjJarzuDQ|Hardee's|Madison|WI|43.132307|-89.300914|3.5|6|1|American (New)|3.5
q83uB6EGF6y2MuR-7VZPRg|Culver's|Madison|WI|43.1341322|-89.3728554|3.0|8|1|Food /// Ice Cream & Frozen Yogurt /// Fast Food|2.71
oudTF4EN_C8thENGiTQf-w|Chili's Bar & Grill|Madison|WI|43.1266792|-89.3087635|3.0|19|2|BarsNightlife /// Tex-Mex|3.11
ZjwZIQM4TfFO7T7ck7FtYQ|Copps Food Center|Madison|WI|43.112943|-89.349625|2.5|11|2|Food /// Beer, Wine & Spirits /// Grocery /// Delis|2.67
MVFeOZVt641WBvdsRmnhPg|Slice's Bar & Grill|Madison|WI|43.104434|-89.357979|4.0|8|1|Dive Bars /// Bars /// American (Traditional) /// Nightlife|3.86
9vgu6o1CwP5NakVkb29z0g|Sarku Japan|Madison|WI|43.1280801|-89.3043221|4.5|6|1|Japanese|4.33
JdCFcgw4yk4M1ZRhAhBIag|Applebee's|Madison|WI|43.130005|-89.303977|2.5|25|2|Bars /// American (Traditional) /// Nightlife /// Steakhouses /// Sports Bars|2.25
311yXufoXR2dFngMHS9MFg|McDonald's|Madison|WI|43.104087|-89.340903|3.0|6|1|Burgers /// Fast Food|3.4
QB64-PgfEUzbrOL50bJ0Bw|Wendy's|Madison|WI|43.121874|-89.3179828|2.0|4|1|Burgers /// Fast Food|2.0
rgyvl8tNVAony634_9vFdQ|Taco Bell|Madison|WI|43.10379|-89.342924|2.5|10|1|Fast Food /// Mexican /// Tex-Mex|2.67
v5a-Mj4eO1E--HmgwEWo7A|Red Lobster|Madison|WI|43.128034|-89.307157|3.0|28|2|Seafood /// American (Traditional)|3.08
HTplzElel_F_U_qhWuDKdg|Dexter's Pub|Madison|WI|43.1034474|-89.3501215|3.5|75|2|Pubs /// Bars /// American (New) /// Nightlife|3.7
0oQFFOdPZycIBmGkoBrlbg|Noodles & Company|Madison|WI|43.1254079487|-89.3096987728|3.5|30|1|Italian /// Comfort Food /// Asian Fusion|3.31
QdSGdvZATzejDkSs435Rdw|Eagle Crest Bar|Madison|WI|43.1070277512|-89.2873446108|3.5|13|1|Dive Bars /// Burgers /// Bars /// Nightlife|3.57
1YEuqVtVMHdpavzoGcUUug|International House of Pancakes|Madison|WI|43.1301419411|-89.3064034109|2.0|15|1|Breakfast & Brunch /// American (Traditional)|2.14
7uoxZ35biPZfl8m5w2_XRA|Papa John's Pizza|Madison|WI|43.1008373163|-89.3489094618|4.5|5|2|Pizza|3.83
uzJ2Vefb951El2oneQI8NQ|Wong's Garden|Madison|WI|43.0925288|-89.3538449|3.5|18|1|Chinese|3.5
JPFzpR5PvZWqHXQMIZFk2w|Cool Beans Coffee Cafe|Madison|WI|43.1229341|-89.3090068|4.5|43|1|Food /// Coffee & Tea /// Cafes|4.29
fjaQ3Ixkofh8xGhklUtDnA|Monty's Blue Plate Diner|Madison|WI|43.09242|-89.3518969|4.0|375|1|American (Traditional) /// Diners|4.04
J2AiPQnKWBxBwc4MMkbH8w|Villa Tap|Madison|WI|43.1233893|-89.3553901|4.0|18|1|Dive Bars /// Bars /// American (Traditional) /// Nightlife|4.0
YlznKuAxnd7j3QfXFzoIog|Players Sports Bar|Madison|WI|43.0925151|-89.3546142|4.5|18|1|Bars /// Burgers /// Sandwiches /// Nightlife /// Sports Bars|4.38
Ryq600aoE3h8_qRQGIed9A|People's Bakery|Madison|WI|43.1030951|-89.3456846|4.0|60|1|Bakeries /// Lebanese /// Food /// Mediterranean /// Middle Eastern|4.17
jqOPL979k-t_Vc049CnAjg|Rosati's Authentic Chicago Pizza|Madison|WI|43.1055563606|-89.2966957014|3.5|7|2|Pizza|3.5
nE51k932dNFc-gClgPguVw|Food Fight Inc|Madison|WI|43.0922016|-89.3546823|3.5|3|N/A|American (Traditional)|3.33
xMyTUliefguc3bfetGebJg|Pizza Pit|Madison|WI|43.0923911|-89.3610073|2.5|8|2|Caterers /// Pizza /// Event Planning & Services|2.4
jqo3Ljexof9sA8PhSTwEjA|Maharaja Restaurant|Madison|WI|43.1224002|-89.3108083|4.0|44|2|Indian|4.0
68JsiWNLKs8NDCrBCxIWMA|Esquire Club|Madison|WI|43.111265|-89.363442|3.0|32|2|Steakhouses|2.93
PhdMPqSdLZi6IV8SdnpUAQ|Olive Garden Italian Restaurant|Madison|WI|43.1263218|-89.3093442|3.5|22|2|Bars /// Salad /// Wine Bars /// Nightlife /// Italian|3.35
eC4iEcRR3p5NLq9Zf80ZGg|Imperial Garden Chinese Restaurant|Madison|WI|43.1264618|-89.3115905|3.5|32|2|Chinese|3.35
-4PHmmCt_RmAfaE3sDKW_g|Mr Roberts|Madison|WI|43.092992|-89.351504|3.0|14|1|Bars /// Dive Bars /// Burgers /// Nightlife /// American (New)|3.36
JJFoeKZXgi2_LeECDMkkoQ|Tip Top Tavern|Madison|WI|43.107164|-89.351047|4.0|55|2|Pubs /// Bars /// American (New) /// Nightlife|4.09
vdWTm_hVFdt5s8Ca1Xyddw|KFC|Madison|WI|43.1314|-89.2999|2.0|4|N/A|Fast Food /// Chicken Wings|1.75
KHOHjA8HOcTlFBCtMQFv8A|Harmony Bar & Grill|Madison|WI|43.093003|-89.349182|4.0|41|2|Dive Bars /// Bars /// American (Traditional) /// Nightlife|3.76
ykxf0XiJt-d76dBwfO_yew|TGI Friday's|Madison|WI|43.131064|-89.2985829|3.0|18|2|BarsAmerican (Traditional) /// Sports Bars /// Nightlife|3.06
HLWtNcf3l-wKb6v9duteMQ|Smoky Jon's #1 BBQ|Madison|WI|43.123698|-89.355581|4.0|162|2|Barbeque|4.09
XIZ259hZ6Yww3C0o97MgUQ|Fazoli's|Madison|WI|43.127149|-89.30111|2.5|12|1|Italian|2.64
Pa_brCvUaiUPPvm3tJQwgw|Dimitri's Gyros|Madison|WI|43.1147614|-89.328732|3.5|3|1|Greek|3.0
j515klfbCAEF3KPiKvHz9g|Pat O'Malley's Jet Room|Madison|WI|43.1400680998|-89.3262535777|4.0|59|1|Diners|4.21
S2x-rEziU3ONR9zO_vpPxA|Panera Bread|Madison|WI|43.131264|-89.301283|3.0|19|1|Soup /// Sandwiches /// Salad|2.94
MONajnUQ5-IRtv8PSPn_yA|Cottage Cafe|Madison|WI|43.0852546|-89.306513|4.5|33|1|Breakfast & Brunch /// Cafes|4.29
Jb5SB2OXbRW0e7ErGlMK-Q|Michael's Frozen Custard|Madison|WI|43.0851381|-89.3252648|3.5|38|1|Food /// Ice Cream & Frozen YogurtBurgers|3.5
pHBQ-dQRwN3z7Rq7iSog-A|Pizza Hut|Madison|WI|43.0845957|-89.2995667|2.0|9|2|Italian /// Pizza /// Chicken Wings|2.0
Py2Jmwm7QXZRCVJ5hnPXgw|La Rosita Latina Grocery Store|Monona|WI|43.0546552|-89.3255237|4.5|10|1|Food /// Grocery /// Latin American /// Mexican|4.83
brkJrGv2Eaj9NTl9g2RMgA|Rocky Rococo Pan Style Pizza|Madison|WI|43.0703762|-89.3253853|2.5|3|1|Pizza|2.67
spiYqne1kXzYQxDTZfKt2g|Fat Jacks Barbecue|Monona|WI|43.050444|-89.325618|3.5|31|2|Barbeque|3.31
U_m1zmeKhRkqOLxHFBXdEg|La Bamba|Monona|WI|43.055932|-89.32615|2.5|6|1|Mexican|2.5
UyEbMXjDTNGks_k12fGNdg|Poppa Coronofoulos Gyros & Chicago Style Deli|Madison|WI|43.073723|-89.307305|3.5|4|1|Hot Dogs|4.5
8AGIIxZ-BBHbEGsgmhOOwA|Arby's|Madison|WI|43.047206|-89.305583|1.0|3|1|Burgers|1.0
cRqZ_w9ImfYYIXTHpJMv0Q|Silver Eagle Bar & Grill|Monona|WI|43.056329|-89.326148|3.0|21|2|Bars /// American (Traditional) /// Nightlife|3.17
kOXJrbuB1a1Na6sf_WQnDg|Tully's II Food & Spirits|Monona|WI|43.0486523|-89.3253781|2.0|12|2|Bars /// American (Traditional) /// Nightlife|2.17
I8Bx7iuHWz6d2TQDfKfjqA|Rossi's|Monona|WI|43.0546898|-89.325516|4.0|3|1|Pizza|4.0
ki33_SvM4kPjgA44Re8-zQ|Fraboni's Italian Specialties & Delicatessen|Monona|WI|43.056621|-89.326717|4.0|12|1|DelisItalian|3.79
LWmlH8MwUnwMWN5Ma8utnQ|Ken's Meat's & Deli|Monona|WI|43.0573597|-89.3261551|4.0|22|2|Food /// Specialty Food /// Delis /// Meat Shops|4.21
cCStad4wX3ADPbz5AHCn9g|KFC|Madison|WI|43.084|-89.3162|1.0|6|2|Fast Food /// Chicken Wings|1.0
xou2z56CFTWYoA99s4DpTg|Taco Bell|Monona|WI|43.0477|-89.3246|3.5|4|1|Fast Food /// Mexican /// Tex-Mex|3.0
QfCHvy6v39xPH7CvCASlFg|Buck's Pizza|Madison|WI|43.0836891|-89.3225822|4.0|19|1|Pizza|4.33
qodyGnpmj1zEfi7nJ534BA|David's Jamaican Cuisine|Monona|WI|43.0569909|-89.32527|4.0|43|1|Caribbean|3.92
unXHmjewHGeWQwJr74Sy9g|China Inn|Madison|WI|43.0843511|-89.2997981|3.0|12|1|Chinese|2.55
JD1uVun5FEF_Ih2PnHCbuA|Dairyland Family Restaurant|Madison|WI|43.084321|-89.31379|2.5|15|1|American (New)|2.57
CiZ_j-Hq5WK5WOW_zB7WZg|Green Forest Family Restaurant|Monona|WI|43.0485254|-89.3155007|4.0|4|1|Breakfast & Brunch /// American (Traditional) /// Comfort Food|4.0
R6TxOULUEMSq1-7P0w6kTA|Wendy's|Madison|WI|43.0633408|-89.3071542|3.0|4|N/A|Burgers /// Fast Food|3.0
4pZeC9W0EIiBTOJMnwG2vw|Red Robin Gourmet Burgers|Monona|WI|43.0465272|-89.3239208|2.5|44|2|Burgers /// American (Traditional)|2.48
2aai1pIfThxDTTD_WwXHeA|Taste of China|Monona|WI|43.0602545|-89.3267209|2.5|9|1|Chinese|2.17
jGU7WGOM2qUHofLKZAFAIg|Noodles & Company|Monona|WI|43.047024|-89.3238721|3.0|12|1|Italian /// Comfort Food /// Asian Fusion|2.9
FiP9q_YD5vgxu_Sflo5oZw|Culver's|Madison|WI|43.0837436|-89.3078087|3.5|10|1|Food /// Ice Cream & Frozen Yogurt /// Fast Food|3.27
FIR1SRvSAMNTO3VvNaJn2g|Toby's Supper Club|Madison|WI|43.0440001|-89.3027747|4.0|61|2|American (Traditional)|3.85
yrBo3c3OTKVO4H1ttBxadw|Pooley's|Madison|WI|43.1416016|-89.2849001|3.0|29|2|Bars /// American (Traditional) /// Venues & Event Spaces /// Nightlife /// Event Planning & Services /// Sports Bars|3.11
R825-NTAI2wG2C4mN-dtNA|Uno Pizzeria & Grill|Madison|WI|43.135442|-89.290761|3.5|39|2|American (Traditional) /// Pizza /// Gluten-Free|3.29
wN5WijlhJjW_3keXENR1cw|Sushi Box|Madison|WI|43.071852|-89.42842|3.5|46|2|Asian Fusion /// Sushi Bars /// Japanese|3.8
r5S_wYdu1vKRW1k-7_yOIA|Milio's Sandwiches|Madison|WI|43.0677216|-89.4236293|3.5|16|1|Sandwiches|3.6
Xia0Lo492MDWbCd48scnYA|Subway|Madison|WI|43.0727654|-89.4248377|1.5|3|1||1.67
27q7XsLrKPNwr8i5RcCOvQ|Boomerang's Bar & Grill|Urbana|IL|40.1050134|-88.1925483|4.0|10|1|Bars /// American (Traditional) /// Nightlife|3.75
UcuoAlVyNXeD1Na9M47qZw|Casey's Carry Out Pizza|Urbana|IL|40.114686|-88.1813252|3.5|3|1|Pizza|3.33
0kRBRm5xOWclzemsLl9iQA|Hickory River Smokehouse|Urbana|IL|40.128807|-88.197784|4.0|65|1|American (Traditional) /// Barbeque|3.79
Gf9HbiraKNZpxbxwScHBVw|The Apple Dumplin'|Urbana|IL|40.1336703544|-88.1625332782|3.5|24|1|American (Traditional)|3.7
9wAPwDJJlvaWQVF56fYEfQ|Wingstop|Urbana|IL|40.1134471|-88.2030657|4.5|3|1|Barbeque|3.5
DWZ1_iy-cTeehK5FTiqH-g|Steak 'n Shake|Urbana|IL|40.133231|-88.198592|1.5|7|1|Food /// Burgers /// Fast Food /// Ice Cream & Frozen Yogurt|1.57
vubRS4bmJ_8yXpn-67wNZA|First Wok|Urbana|IL|40.0962948|-88.1920978|4.0|26|1|Chinese|3.71
mv1gFZ8FYsFIOTENKhXddw|Papa Murphy's|Urbana|IL|40.1134471|-88.2030657|3.5|7|1|Pizza|3.83
1ZMcQNF-hHL0nJSnh5_a4w|El Toro|Urbana|IL|40.123643|-88.200627|3.5|16|1|Mexican|3.41
jO-ttNypCvyiirNMX0-I5w|Ned Kelly's Steakhouse|Urbana|IL|40.128228|-88.199861|3.5|3|N/A|American (New)|3.33
u-y1z3usKenHtOGrH5Vveg|Cracker Barrel Old Country Store|Urbana|IL|40.1334216|-88.1994685|3.5|21|2|Breakfast & Brunch|3.61
vxFeYTFre83stnrcLAj84A|Arby's|Urbana|IL|40.117801|-88.20475|3.5|4|1|Fast Food|3.33
yTlW8Xh1wPpvHBl3dGz9mA|Monical's Pizza|Urbana|IL|40.0833818|-88.1905185|3.0|23|2|Pizza|3.2
SQASst3NU4tA-t4cmWLILA|Subway|Champaign|IL|40.1105931|-88.2296109|2.5|9|1|Fast Food /// Sandwiches|2.38
kQIa72d-V_MuklkrDig3Mg|Rocks|Champaign|IL|40.112114|-88.241292|3.5|3|1|American (Traditional)|3.33
6M1F5AECDtWff1Tu3uLEWA|Empire Chinese Restaurant|Champaign|IL|40.110554|-88.232373|3.5|35|1|Chinese|3.52
Uw1DZhEtTmLzMcXmdpR8Pw|Silver Mine Subs|Champaign|IL|40.108174|-88.229693|3.5|16|1|Sandwiches|3.53
rE8048_DAh3Z8Tep466wrA|Mandarin Wok|Champaign|IL|40.1100319|-88.2330779|3.5|47|2|Chinese|3.33
RwhUzMEG2tVnZQY9dEuXzw|Kam's|Champaign|IL|40.1079898|-88.2295058|2.0|45|1|Bars /// Pubs /// Comfort Food /// Nightlife /// Sports Bars|2.05
cT9uP_Lr5bz6jhIqZPlLcw|El Charro|Champaign|IL|40.1100704|-88.2395746|4.0|39|1|Mexican|3.97
WuYyJjMOQ9-mYArlNWlaig|The Pita Pit|Champaign|IL|40.110039|-88.229804|3.5|3|1|Sandwiches|3.67
Vi9dFbRNDO8BzXJuCdVufg|Dorcas Restaurant|Champaign|IL|40.1100319|-88.2330779|4.0|7|1||4.0
UrxAu3jjRM_u6iQXDPzkSQ|Zorba's Restaurant|Champaign|IL|40.110085|-88.229304|4.0|88|1|Greek|3.92
1IxGmH6sn7CnUl8BVwp5hA|Garcia's Pizza In A Pan|Champaign|IL|40.110515|-88.237634|3.5|3|N/A|Pizza|3.67
vY3jiyABOyFOaGBujou8Vg|Luna|Champaign|IL|40.116715|-88.240606|3.0|62|2|Tapas Bars|3.12
1tK0k-vRgGFC3oSZNUJ58Q|Bombay Indian Grill|Champaign|IL|40.110474|-88.233544|3.5|70|2|Indian|3.54
iCOvcfVRfi-f05aeqBLpKg|Geovanti's|Champaign|IL|40.1100246|-88.2332899|3.0|33|1|Dive Bars /// BarsNightlife /// Italian|3.24
j9N_fG1PVCSY-3HY1TRQ5Q|Jimmy John's|Champaign|IL|40.1097893|-88.2408101|3.0|12|1|Sandwiches|3.09
u06X5C_pIAVuOXOznIcPYw|Home of Gourmet Chinese & Thai Restaurant|Champaign|IL|40.108116|-88.230005|3.5|31|1|Chinese|3.46
3lHBRYjfaMTZeWuQs9vvQw|Basil Thai Cafe|Champaign|IL|40.110554|-88.232373|3.0|14|1|Thai|2.92
K5PfWwW61Ajommy9xvXdAw|Kamakura Japanese Restaurant|Champaign|IL|40.107869|-88.2435628|3.0|55|2|Japanese|3.13
gwrFXlSudWuA-zxZeE5svA|Seaboat|Champaign|IL|40.0977581|-88.2487949|3.5|43|1|Soul Food /// Southern|3.6
H0D2HYqLd9MRCq68rtbTyQ|Olive Garden Italian Restaurant|Champaign|IL|40.1358519816|-88.2411279505|3.0|39|2|Bars /// Salad /// Wine Bars /// Nightlife /// Italian|2.78
mtQHSFxx35emKstqMxp9Cw|Basmati Indian Cuisine|Champaign|IL|40.114132|-88.238369|2.5|4|2|Pakistani /// Vegetarian /// Indian|3.0
SoyigEmlt4JYwnOqR_cqUw|The Ribeye|Champaign|IL|40.096106|-88.2454553|3.5|49|2|Steakhouses|3.38
niK-GkBZ_RIFscfy-nH1rg|Old Time Meat & Deli Shoppe|Champaign|IL|40.091899|-88.2452807|5.0|29|2|Food /// Specialty Food /// Delis /// Meat Shops|4.8
vBg5V39Vf4eTx1JVgl_5Pg|Merry-Ann's Diner|Champaign|IL|40.0984473|-88.2442422|3.0|53|1|Breakfast & Brunch /// Diners|3.0
UV04TEpMGWoQs36FkBwOgQ|TGI Friday's|Champaign|IL|40.097136|-88.245695|3.0|15|2|American (Traditional)|2.94
G7td0ad3wqtEODTJpNjEZQ|Carmon's Restaurant|Champaign|IL|40.119807|-88.2438559|4.0|44|2|Creperies /// French|3.89
_dOcOVjrFcIKbMWX1VTdBA|Fiesta Cafe|Champaign|IL|40.1147989|-88.2384807|3.5|40|2|Mexican|3.63
2UAbUSTMsR9G26A8AYO3dA|Sam's Cafe|Champaign|IL|40.1169853|-88.2427068|4.0|69|1|Breakfast & Brunch /// Diners|3.86
MVH3JOKpQvMTP4jxwBUhkA|Murphy's Pub|Champaign|IL|40.1103799066|-88.2301879674|3.5|95|1|Pubs /// Bars /// American (New) /// Nightlife|3.71
6HKjKhgDLBpuZFNBOCzVQw|Le Peep Restaurant|Champaign|IL|40.086902|-88.247837|3.5|72|2|Breakfast & Brunch|3.68
ygZ1n-RjzZibC80NLgHauw|Manzellas Italian Restaurant|Champaign|IL|40.1158806|-88.2389765|3.0|25|2|Caterers /// Event Planning & Services /// Venues & Event Spaces|3.2
TYyzrCsnGu7Dy8QbH5b4nQ|Dom's Patio Villa|Champaign|IL|40.114144|-88.239757|4.5|4|1|Italian|4.5
9SFWEreW7wAXB3zYu28r_Q|Hardee's|Champaign|IL|40.0956999|-88.2454984|2.5|10|1|Burgers|2.25
eNEV1AbQsDMYtxCeXXpUGQ|Jillian's|Champaign|IL|40.103246|-88.244236|3.5|5|N/A|Bars /// Pool Halls /// American (Traditional) /// Nightlife|3.6
U8fJ4fEhoFGqxYLK_VNoEQ|A-Ri-Rang|Champaign|IL|40.1111735243|-88.22904367|3.5|42|1|Korean|3.5
WgmAx4SWy-71daxakDNd1g|Chevys Fresh Mex|Champaign|IL|40.137405|-88.245935|3.0|15|2|Bars /// Mexican /// Nightlife|2.93
05FJCAvUFOAk8B_nIOqt7A|Legends|Champaign|IL|40.1105579|-88.2311675|3.5|60|1|BarsNightlife /// Sandwiches|3.47
JhEA8qHfNmIh8c6OHXnaYA|Hooters|Champaign|IL|40.1271729|-88.2468548|2.5|21|2|Bars /// American (Traditional) /// Sports Bars /// Nightlife /// Chicken Wings|2.58
M5E7DW8rqI4v37HhD2pzGQ|Peking Garden Restaurant|Champaign|IL|40.1178493|-88.2450179|4.0|46|2|Chinese|3.88
TRNYNeiLLY-1yobo4rArxQ|Wonderdogs|Champaign|IL|40.1113062|-88.2289026|4.0|19|1|Hot Dogs|4.12
KUpdnQi16DGP54FlDWOJ6g|Bob Evans|Champaign|IL|40.1375386|-88.2444325|2.5|15|1|Breakfast & Brunch /// American (Traditional)|2.93
MSMdhoUraQ0DLLwmLbM28A|Monical's Pizza|Champaign|IL|40.097774|-88.24573|3.5|22|1|Pizza|3.47
pygZcdPZ-XMp8CY8_5tE8A|Number One Wok|Champaign|IL|40.1101982|-88.2430455|3.5|15|1|Chinese|3.5
ljsTa0MiQyVfKrgq2FOKdg|McDonald's|Champaign|IL|40.0975069|-88.2452826|2.5|11|1|Burgers /// Fast Food|2.6
OxMl_jn8qNvV-pU2Dxj52w|Fat City Saloon|Champaign|IL|40.110967|-88.242733|3.0|4|1|Arts & Entertainment /// Music Venues /// Bars /// Nightlife /// American (New)|3.0
kMcbuXZx3iILJVEPyLgPpQ|Panda Express|Champaign|IL|40.1427776|-88.243865|3.5|7|1|Chinese|3.4
EMjKhNWBprdlb5Obcia2uA|Prime Time Pizza|Champaign|IL|40.116061|-88.231376|2.5|10|1|Pizza|2.44
0lFRJ0q1PU_R4YaLNRWnpA|Nitaya Thai Restaurant|Champaign|IL|40.118535|-88.244967|3.0|54|2|Thai|3.25
oP8KsXHOUA_otHHI5JHScQ|The Great Impasta|Urbana|IL|40.1112419|-88.2072116|3.0|26|2|Italian|3.13
L3S29vAyPOxmDZ04AilwnQ|Subway|Champaign|IL|40.0997492|-88.244739|1.5|5|1|Fast Food /// Sandwiches|1.2
79hY0d7j45ZRjTAB2d0jQQ|Subway|Champaign|IL|40.1081556|-88.2297751|2.5|4|N/A|Sandwiches|2.25
1T2rnvl67Gk9Uc0gzsCKQA|Joe's Brewery|Champaign|IL|40.109713|-88.2317829|3.0|30|1|Burgers /// Bars /// American (Traditional) /// Nightlife|2.93
dXLRevtIEnAvjUhPM_zTEg|Qdoba Mexican Grill|Champaign|IL|40.110041|-88.2296889|2.0|15|1|Mexican|2.08
Kck9wE9Z1S_xxzglh1Qdwg|Rainbow Garden|Champaign|IL|40.1004504|-88.2439462|3.5|47|2|Chinese|3.54
jv-VfERRGsx0-MF7kLj8XQ|Arby's|Champaign|IL|40.0842794081|-88.2463756759|2.0|3|1|Sandwiches|1.67
pPWre8lbVAssER6CN0uWMw|Esquire Lounge|Champaign|IL|40.116597|-88.242292|4.0|81|1|American (Traditional) /// Pizza /// Nightlife /// Pool Halls|3.93
6U94ybDpNd0fTL7TIzb5Kg|Jupiter's Pizzeria and Billiards|Champaign|IL|40.1177419112|-88.241513984|4.0|74|2|Bars /// Pool Halls /// Nightlife /// LoungesPizza|3.93
h9xdY1NO4GnNijNChTy-8A|Bacaro|Champaign|IL|40.1169069806|-88.2426019246|4.0|120|3|BarsNightlife /// Lounges /// American (New) /// Italian|3.94
AB5RgQ0ZnMThdqgFS3cPuw|Radio Maria|Champaign|IL|40.1171251|-88.2426687|3.5|209|2|Breakfast & Brunch /// Spanish /// Cajun/Creole|3.64
-1oj6-fkP-iO6OyW8QBqPg|Jerusalem Middle Eastern Cuisine|Champaign|IL|40.1113|-88.229192|3.0|34|1|Middle Eastern|3.29
562AuYjOuZwtTbS1UYhY6Q|Alexander's Steakhouse|Champaign|IL|40.1369071|-88.2452215|3.0|44|2|Steakhouses|3.12
xKoqmvyHBovS7RmKQn3_jg|KFC|Savoy|IL|40.0712|-88.2487|2.0|7|1|Fast Food /// Chicken Wings|2.0
x5Mv61CnZLohZWxfCVCPTQ|Domino's Pizza|Phoenix|AZ|33.4794817|-112.0736806|2.5|16|2|Sandwiches /// Pizza /// Chicken Wings|2.56
2ZnCITVa0abGce4gZ6RhIw|Viad Tower Restaurants|Phoenix|AZ|33.4685474|-112.0750849|3.5|6|1|American (New) /// Sandwiches|3.57
EmzaQR5hQlF0WIl24NxAZA|Sky Lounge|Phoenix|AZ|33.4483992|-112.0717019|2.5|25|1|American (New) /// Nightlife /// Dance Clubs|2.4
KPoTixdjoJxSqRSEApSAGg|Wild Thaiger|Phoenix|AZ|33.477939|-112.073417|3.5|432|2|Thai|3.75
e5kc0CQ4R-PCCDgb274gSg|Canyon Cafe|Phoenix|AZ|33.4521542|-112.0686202|3.5|238|2|Cafes /// Mexican /// Tex-Mex|3.66
gBcpDl0quCLABsg5OuSFww|Teeter House Tea Room|Phoenix|AZ|33.4492979|-112.0655423|3.5|12|2|Food /// Tea Rooms /// Breakfast & Brunch /// Sandwiches|3.2
72N6TdH5MdUWE2YhYRbyxw|Burger King|Phoenix|AZ|33.47626|-112.074248|2.5|12|3|Burgers|2.4
eOgUKCy5-sK-leqIBiNokg|Copper Square Cafe|Phoenix|AZ|33.4484911|-112.0744277|3.0|3|1|Cafes|3.0
neGAQFkBNI8-rpPBLBzNkw|Taco Bell|Phoenix|AZ|33.46544|-112.06909|4.0|10|1|Fast Food /// Mexican /// Tex-Mex|4.0
45puCRQ6Vh_IIAy7kkfFDQ|Majerle's Sports Grill|Phoenix|AZ|33.4484654|-112.0712574|3.5|205|2|BarsAmerican (Traditional) /// Sports Bars /// Nightlife|3.36
nc3IiY5LNdmEwUZCW84yuA|Pizzeria Uno|Phoenix|AZ|33.4521542|-112.0686202|2.5|18|2|Pizza|2.88
P7wKlbSRsoRrfH3DFOY08A|International House of Pancakes|Phoenix|AZ|33.475583|-112.074115|3.0|57|1|Breakfast & Brunch|2.94
BESmH-lmMm34_EefL8X9fQ|Comedor Guadalajara|Phoenix|AZ|33.429424|-112.073929|4.0|265|2|Mexican|4.16
D09yG6Z3gcsh24Qn7Y4gYA|Chico's Tacos|Phoenix|AZ|33.4657117|-112.0657286|3.0|89|1|Mexican|3.12
kaIue7GRCmkPzDeHDBTttQ|Phoenix Blue Fin|Phoenix|AZ|33.4640982988|-112.073569|4.0|172|1|Sushi Bars /// Japanese|4.15
j8nyAaN_w5t6wYv-ni23sg|Coach & Willies|Phoenix|AZ|33.443909|-112.070122|3.0|73|2|Nightlife /// Bars /// American (New) /// Sports Bars|3.26
5XIvwfbIa-vuFEkkeCQ6kQ|Jackson's On 3rd|Phoenix|AZ|33.4450359|-112.0706266|2.0|9|2|Bars /// American (New)Sports Bars /// Nightlife|2.11
VsO_rhXi5lgbaGxNwoEZsQ|Fate 905|Phoenix|AZ|33.4579128|-112.0686777|3.0|90|2|Asian Fusion /// Chinese|2.96
Y293fHh5SZ0_9BZm4M6BCg|Matador Restaurant|Phoenix|AZ|33.4493093|-112.07194|3.0|57|2|Greek /// Mexican|2.81
IceZ4BtTz76eppjNWm-c6A|Paisley Violin|Phoenix|AZ|33.4547647|-112.0865171|3.5|59|1|Greek /// Mediterranean|3.7
QsvRjgQacMMFf8dit7qqDw|New Garden Restaurant|Phoenix|AZ|33.439268|-112.073481|4.0|18|2|Chinese|4.19
LXhL5X3edNRy7epku6UAEw|Paradise Bakery|Phoenix|AZ|33.4470733|-112.0709775|4.0|7|N/A|Bakeries /// Food /// Breakfast & Brunch|3.67
-lOSaCuBRAvX5JBifx-EMw|Mi Amigo's Mexican Grill|Phoenix|AZ|33.4521542|-112.0686202|3.0|129|2|Mexican|2.98
XI-_Y2XRw03mozGx0Z90Gw|Baja Fresh Mexican Grill|Phoenix|AZ|33.4487514|-112.0738147|3.5|21|1|Mexican|3.45
qsWxbgQwuomXvMseg23DGg|Hooters|Phoenix|AZ|33.4523351|-112.0696144|2.5|113|2|Bars /// American (Traditional) /// Sports Bars /// Nightlife /// Chicken Wings|2.44
DlCtdbceo4YNSI53cCL2lg|The Old Spaghetti Factory|Phoenix|AZ|33.46425|-112.074153|3.0|275|2|Italian|3.19
kR5i58Pcse1FD9tk-yYLlA|Crave Sandwich Cafe & Catering|Phoenix|AZ|33.450875|-112.066333|3.5|25|1|Event Planning & Services /// Caterers /// Sandwiches|3.76
2I666dqzs1XB6xigIKa9bA|Tom's Tavern & 1929 Grill|Phoenix|AZ|33.448424817|-112.074802052|3.0|78|2|American (Traditional)|3.08
yExYqENb4F6qH6kJxTOaSQ|Karim's Cobbler Shop & Deli|Phoenix|AZ|33.4458023|-112.0691069|3.5|19|1|Delis|3.56
9BH18avE46LlHMvJn67MaA|The Downtown Deli|Phoenix|AZ|33.4499524|-112.0740511|4.0|57|1|Breakfast & Brunch /// Delis /// Sandwiches|3.85
trAvQPp7gps0Btk-2AmLpw|Zoes Kitchen|Phoenix|AZ|33.465499|-112.081565|3.5|127|1|Greek /// Mediterranean /// Sandwiches|3.26
VCQ3VvnVRhibTT8J61xWkw|Jack in the Box|Phoenix|AZ|33.4372015|-112.0656044|2.0|5|N/A|Fast Food|2.33
s6zzKc7UvwDRxn-BFlhiTg|Subway|Phoenix|AZ|33.4521542|-112.0686202|2.5|6|1|Fast Food /// Sandwiches|2.5
4WcxnNv_lzCIG2eb8O5Mlg|The Brickhouse|Phoenix|AZ|33.44455|-112.073577|3.5|7|2|Arts & Entertainment /// American (Traditional) /// Nightlife /// Music Venues|3.5
gkv2XvXpFgiq4Bb2XK7YmQ|Hard Rock Café|Phoenix|AZ|33.4468850573|-112.071075886|3.0|124|2|Arts & Entertainment /// Music Venues /// Burgers /// Nightlife /// American (New)|3.05
If2DUhmWIvlu2JFc_rR-Bw|Papa Christo's|Phoenix|AZ|33.4484911|-112.0744277|3.5|26|1|Italian /// Pizza /// Sandwiches|3.67
xH5axHFadmc7Veutt376TA|McDonald's|Phoenix|AZ|33.4653345|-112.0655975|1.5|20|1|Burgers /// Fast Food|1.33
Vvh2Hd4SsZjEEfKLNKAEWw|Subway|Phoenix|AZ|33.479418|-112.0732961|4.0|12|N/A|Fast Food /// Sandwiches|4.0
sInUSy63Oh455uWs9p9OqQ|Central Cafe|Phoenix|AZ|33.4771144|-112.0744197|4.5|7|1|Cafes|4.11
x8WoC_7WHzXNmt6J13Nbvw|Jordan's Mexican Food|Phoenix|AZ|33.477594|-112.072914|2.0|4|1|Mexican|2.5
wki-Qlp3OWgH0XtZ-Jz_WQ|Duck & Decanter|Phoenix|AZ|33.4483756752|-112.072706876|4.0|50|1|Delis /// Sandwiches|3.84
OoHWabV-ym7_HWlHeXTsVA|Best of Philly|Phoenix|AZ|33.4794824|-112.0740962|3.5|65|1|Cheesesteaks /// Sandwiches|3.8
oSKT5oZX1NWYaHwOWL5lag|Ichi Ban Japanese Restaurant & Sushi|Phoenix|AZ|33.4794762|-112.0736809|3.5|51|2|Sushi Bars /// Japanese|3.43
QAe9UHKsxPdXQovBpaznMQ|Schlotzskys Deli|Phoenix|AZ|33.476644|-112.0736968|2.5|13|1|Delis /// Fast Food /// Sandwiches|2.69
q1nDSpmV-FdTBNj6UuZvTg|Honey Bear's BBQ|Phoenix|AZ|33.4796505|-112.0742162|3.0|237|2|Barbeque|3.0
muCl5p-9ut1sY0aKeUeRhw|Cheuvront|Phoenix|AZ|33.4633319|-112.0741467|3.5|187|2|Wine Bars /// Bars /// American (New) /// Nightlife|3.64
oCA2OZcd_Jo_ggVmUx3WVw|Alice Cooper'stown|Phoenix|AZ|33.4448019849|-112.072117722|3.5|409|2|Bars /// Music Venues /// Arts & Entertainment /// Nightlife /// Sports Bars /// Barbeque|3.43
eK6KGMKqU_4nB9RdayZD7Q|Tee Pee Tap Room|Phoenix|AZ|33.442472|-112.065825|2.5|30|2|Mexican|2.64
jn3OgTqiQIFymRA9U0PTfQ|Arizona Baseball Club Restaurant|Phoenix|AZ|33.4453626|-112.0674961|3.5|8|2|American (New)|3.5
1-1VcGTL3GyCqUpXZLFTZA|Friday's Front Row Sports Grill|Phoenix|AZ|33.4453626|-112.0674961|3.0|104|2|American (Traditional)|3.14
odhXwWaYZvD_icIN6f_DbA|Athenian Express|Phoenix|AZ|33.4575099|-112.0741235|3.5|77|1|Greek /// Mediterranean /// Sandwiches|3.55
avPNEqlXgyBvTXjb-ujQFA|Pizza Hut|Phoenix|AZ|33.4794961|-112.0469586|2.0|7|1|Italian /// Pizza /// Chicken Wings|2.0
ldIxXmxD3Cku0vODGYb9dQ|Subway|Phoenix|AZ|33.4794961|-112.0469586|2.5|7|1|Fast Food /// Sandwiches|2.57
hWhVP-28LYP3llaMlAJ_JA|Rosita's Place|Phoenix|AZ|33.466086|-112.0323491|4.0|214|1|Mexican|3.87
ixTr1qXUFGTzyaZUuCDDvg|Whataburger|Phoenix|AZ|33.4654334|-112.063548|3.0|31|1|Burgers /// American (Traditional) /// Fast Food|2.92
ZoQAOnEFnyHjSpomtfqesA|That's A Wrap|Phoenix|AZ|33.4701393|-112.0654347|4.0|84|1|Sandwiches|4.12
apCfJVnRyaw6oVUBKujpUQ|La Tolteca Mexican Foods|Phoenix|AZ|33.45107|-112.055957|4.0|155|1|Grocery /// Mexican /// Food /// Ethnic Food /// Specialty Food|3.98
ykfTh6HI219NoMsWBxulxw|Gourmet House Of Hong Kong|Phoenix|AZ|33.466043|-112.05026|3.5|94|1|Chinese|3.55
McdTNj-TUMOlfkHwQWs4rg|Tacos Mexico|Phoenix|AZ|33.4737734|-112.04749|4.5|3|1|Mexican|4.33
tb24fvNJfHhyKEXkKn12Xw|Welcome Diner|Phoenix|AZ|33.4588421|-112.0609975|4.5|434|2|Nightlife /// Bars /// American (Traditional) /// Diners|4.68
VXIkI9_EbDbYHeO9IzKjJg|Los Altos Ranch Market|Phoenix|AZ|33.4599088|-112.04608|4.5|145|1|Food /// Grocery /// Mexican|4.4
VKxn7zmp8nOYT-ZHFZTjgA|Mariscos Ensenada|Phoenix|AZ|33.470153|-112.0474211|4.5|29|2|Seafood /// Fish & Chips /// Mexican|4.25
rbiRLiFTG098z9JaK3Nshw|Guanaquito Restaurant|Phoenix|AZ|33.4659637|-112.0506694|4.5|79|1|Latin American /// Salvadoran|4.3
cgNIBHS2mLdbTRiodAT6EQ|Tacos De Juarez|Phoenix|AZ|33.459347|-112.064755|4.0|86|1|Mexican|3.89
SZvYxcvYYVRue9MXcEDjsA|Coco's Family Restaurant|Phoenix|AZ|33.4708674|-112.0653819|3.5|48|1|Bakeries /// Food /// American (Traditional)|3.4
5-X03Zc0nN7U5eoe8uFUdw|Coronado Cafe|Phoenix|AZ|33.4713|-112.064761|4.0|174|2|American (New)|4.09
0De3TQ_uSOXwgduKL0va3w|Sonic Drive-In|Phoenix|AZ|33.4661987|-112.0632154|3.5|14|1|Fast Food|3.0
R6aazv8FB-6BeanY3ag8kw|MacAlpine's Soda Fountain|Phoenix|AZ|33.473125|-112.0650914|3.5|235|1|American (Traditional) /// Shopping /// Comfort Food /// Antiques|3.76
Xo9Im4LmIhQrzJcO4R3ZbA|Rito's Market & Mexican Take Out|Phoenix|AZ|33.4579361|-112.0520629|4.5|219|1|Mexican|4.43
TNKr6FelsEqOHnatOgWhog|Wendy's|Phoenix|AZ|33.4660683|-112.0306582|4.5|3|1|Burgers /// Fast Food|4.67
NYBx4sdSVrN-I5Q8RfLMPg|San Carlos Bay Seafood Restaurant|Phoenix|AZ|33.4655407|-112.0409279|4.0|42|2|Seafood /// Mexican|4.38
Cp6JGY5YIRncTV_My9nf9g|Mariscos Playa Hermosa|Phoenix|AZ|33.4575264|-112.0472803|4.0|287|2|Seafood /// Mexican|4.29
04HakCR6gEeRYNAoKxkppQ|Hacienda Restaurant|Phoenix|AZ|33.4660319|-112.0473925|3.0|4|1|Mexican|3.0
ITyAEjIw9ekv0wXpGHQF1Q|Subway|Phoenix|AZ|33.4658505|-111.9730379|3.5|6|1|Fast Food /// Sandwiches|3.5
q2SZa5g85758iW1L9sSL1g|Eliana's Restaurant|Phoenix|AZ|33.4668576|-112.0298525|4.0|60|1|Latin American /// Salvadoran|3.84
po5FyERB4lUZNnBIwnhFlg|Sonic Drive-In|Phoenix|AZ|33.4661343|-111.973718|3.0|27|1|American (Traditional) /// Fast Food|2.86
I2IofjP2sHZUkv7pcoc33A|Burger King|Phoenix|AZ|33.466085|-112.013243|3.0|6|2|Burgers|3.17
_RBUU1y4yJrK0SPAd8z0-w|Indian Delhi Palace|Phoenix|AZ|33.4657562|-111.9718284|3.5|188|2|Indian /// Buffets /// Event Planning & Services /// Venues & Event Spaces|3.68
WyJuGTwFwoN0k8iX8FsqYw|Jack-In-the Box Drive Thru|Phoenix|AZ|33.458744|-112.029827|3.0|4|1|Fast Food|2.75
PEHJjxdw11TGFma9Zhz3ng|Red Devil Italian Restaurant & Pizzeria|Phoenix|AZ|33.466124|-112.015464|4.0|131|2|Italian|3.85
